     2              OBSERVATION DATA    GPS                 RINEX VERSION / TYPE
DAT2RINW 3.10 001                                           PGM / RUN BY / DATE 
                                                            COMMENT             
536                                                         MARKER NAME
                                                            MARKER NUMBER       
                                                            OBSERVER / AGENCY   
  81153618                  CSI                             REC # / TYPE / VERS 
                                                            ANT # / TYPE        
 -2615079.0013  4732752.3647  3371476.1388                  APPROX POSITION XYZ 
        0.0400        0.0000        0.0000                  ANTENNA: DELTA H/E/N
     1     0                                                WAVELENGTH FACT L1/2
     2    C1    L1                                          # / TYPES OF OBSERV 
  2018     6    25     2    36   10.000000      GPS         TIME OF FIRST OBS   
  2018     6    25     5     9   15.000000      GPS         TIME OF LAST OBS    
                                                            END OF HEADER       
 18  6 25  2 36 10.0000000  0 10G27G30G11G16G23G18G07G08G09G01
  21690321.658     6577152.239  
  23702601.463     2312346.876  
  21878069.993     3371738.440  
  23339040.233     3860242.483  
  23999574.152   -60301205.157  
  21627685.745     6248379.303  
  21462770.302   -41263235.821  
  20404404.638   -61597563.370  
  23240486.245    -4757778.065  
  23200921.328   -58245472.839  
 18  6 25  2 36 15.0000000  0 10G27G30G11G16G23G18G07G08G09G01
  21692793.935     6590147.147  
  23699466.683     2295871.272  
  21875252.877     3356937.331  
  23341033.152     3870731.783  
  24002288.110   -60286956.947  
  21624852.602     6233498.591  
  21460533.709   -41274988.837  
  20405063.940   -61594092.874  
  23242553.284    -4746917.254  
  23197386.033   -58264045.270  
 18  6 25  2 36 20.0000000  0 10G27G30G11G16G23G18G07G08G09G01
  21695267.811     6603146.478  
  23696332.786     2279400.072  
  21872438.505     3342145.253  
  23343031.676     3881223.395  
  24005002.238   -60272708.895  
  21622023.349     6218627.778  
  21458299.289   -41286731.230  
  20405727.560   -61590612.473  
  23244620.636    -4736049.719  
  23193853.769   -58282614.371  
 18  6 25  2 36 25.0000000  0 10G27G30G11G16G23G18G07G08G09G01
  21697742.514     6616150.327  
  23693198.143     2262933.406  
  21869626.391     3327362.265  
  23345030.742     3891717.404  
  24007712.471   -60258460.908  
  21619195.924     6203767.008  
  21456067.127   -41298462.887  
  20406391.292   -61587122.104  
  23246689.961    -4725175.427  
  23190320.043   -58301180.018  
 18  6 25  2 36 30.0000000  0 10G27G30G11G16G23G18G07G08G09G01
  21700218.129     6629158.685  
  23690066.701     2246471.220  
  21866813.901     3312588.483  
  23347026.713     3902213.832  
  24010428.051   -60244213.058  
  21616368.839     6188916.266  
  21453836.448   -41310183.783  
  20407057.653   -61583621.586  
  23248759.910    -4714294.267  
  23186787.943   -58319742.167  
 18  6 25  2 36 35.0000000  0 10G27G30G11G16G23G18G07G08G09G01
  21702694.355     6642171.758  
  23686935.441     2230013.783  
  21864005.456     3297824.094  
  23349024.297     3912712.854  
  24013140.951   -60229965.032  
  21613546.085     6174075.836  
  21451608.384   -41321893.693  
  20407726.485   -61580110.872  
  23250831.472    -4703406.144  
  23183255.740   -58338300.584  
 18  6 25  2 36 40.0000000  0 10G27G30G11G16G23G18G07G08G09G01
  21705172.519     6655189.441  
  23683804.545     2213560.993  
  21861197.089     3283068.938  
  23351023.675     3923214.413  
  24015852.784   -60215717.044  
  21610723.551     6159245.522  
  21449382.258   -41333592.744  
  20408395.108   -61576590.135  
  23252905.401    -4692511.074  
  23179726.332   -58356855.414  
 18  6 25  2 36 45.0000000  0 10G27G30G11G16G23G18G07G08G09G01
  21707649.472     6668211.341  
  23680672.438     2197112.584  
  21858390.659     3268322.761  
  23353021.556     3933718.158  
  24018564.980   -60201469.405  
  21607903.528     6144425.049  
  21447159.929   -41345281.186  
  20409067.243   -61573059.677  
  23254980.409    -4681609.466  
  23176196.286   -58375406.902  
 18  6 25  2 36 50.0000000  0 10G27G30G11G16G23G18G07G08G09G01
  21710129.470     6681237.782  
  23677543.805     2180668.732  
  21855587.560     3253585.736  
  23355021.910     3944224.282  
  24021274.211   -60187221.894  
  21605084.975     6129614.722  
  21444935.637   -41356958.813  
  20409741.993   -61569519.217  
  23257056.888    -4670701.093  
  23172666.137   -58393954.834  
 18  6 25  2 36 55.0000000  0 10G27G30G11G16G23G18G07G08G09G01
  21712608.406     6694268.650  
  23674414.825     2164229.447  
  21852782.254     3238857.865  
  23357020.916     3954732.828  
  24023987.675   -60172974.503  
  21602268.937     6114814.498  
  21442716.007   -41368625.625  
  20410417.255   -61565968.768  
  23259136.168    -4659785.985  
  23169136.929   -58412499.219  
 18  6 25  2 37  0.0000000  0 10G27G30G11G16G23G18G07G08G09G01
  21715089.275     6707303.973  
  23671290.068     2147794.784  
  21849983.175     3224139.212  
  23359022.427     3965243.811  
  24026699.208   -60158727.276  
  21599453.688     6100024.375  
  21440498.024   -41380281.600  
  20411093.163   -61562408.370  
  23261213.089    -4648864.131  
  23165608.654   -58431040.017  
 18  6 25  2 37  5.0000000  0 10G27G30G11G16G23G18G07G08G09G01
  21717570.076     6720343.477  
  23668161.809     2131364.418  
  21847183.883     3209429.468  
  23361021.294     3975756.935  
  24029408.240   -60144480.489  
  21596640.946     6085244.215  
  21438281.832   -41391926.933  
  20411773.724   -61558838.219  
  23263292.946    -4637935.798  
  23162081.024   -58449577.438  
 18  6 25  2 37 10.0000000  0 10G27G30G11G16G23G18G07G08G09G01
  21720052.067     6733387.665  
  23665039.032     2114938.955  
  21844387.929     3194729.172  
  23363023.498     3986272.662  
  24032118.177   -60130233.610  
  21593830.540     6070474.418  
  21436067.403   -41403561.231  
  20412454.617   -61555257.926  
  23265373.278    -4627000.563  
  23158554.872   -58468111.011  
 18  6 25  2 37 15.0000000  0 10G27G30G11G16G23G18G07G08G09G01
  21722534.905     6746436.276  
  23661911.093     2098518.074  
  21841591.105     3180038.084  
  23365024.975     3996790.775  
  24034829.247   -60115987.003  
  21591020.980     6055714.669  
  21433856.540   -41415184.662  
  20413137.359   -61551667.751  
  23267455.030    -4616058.671  
  23155026.705   -58486641.058  
 18  6 25  2 37 20.0000000  0 10G27G30G11G16G23G18G07G08G09G01
  21725019.416     6759489.237  
  23658787.545     2082101.810  
  21838795.953     3165356.219  
  23367026.265     4007311.346  
  24037540.415   -60101740.571  
  21588215.812     6040965.178  
  21431646.491   -41426797.182  
  20413821.917   -61548067.697  
  23269537.595    -4605110.111  
  23151503.072   -58505167.433  
 18  6 25  2 37 25.0000000  0 10G27G30G11G16G23G18G07G08G09G01
  21727504.228     6772546.921  
  23655665.872     2065690.539  
  21836005.395     3150683.918  
  23369027.569     4017834.608  
  24040249.452   -60087494.079  
  21585410.658     6026226.147  
  21429438.746   -41438398.473  
  20414509.780   -61544457.404  
  23271620.891    -4594154.627  
  23147979.168   -58523689.901  
 18  6 25  2 37 30.0000000  0 10G27G30G11G16G23G18G07G08G09G01
  21729990.433     6785609.104  
  23652542.874     2049283.989  
  21833212.796     3136020.958  
  23371029.694     4028360.384  
  24042958.308   -60073247.779  
  21582608.043     6011497.369  
  21427232.967   -41449988.810  
  20415199.323   -61540837.004  
  23273709.587    -4583192.422  
  23144455.512   -58542208.569  
 18  6 25  2 37 35.0000000  0 10G27G30G11G16G23G18G07G08G09G01
  21732475.144     6798675.594  
  23649420.528     2032882.048  
  21830425.714     3121367.187  
  23373035.619     4038888.510  
  24045665.527   -60059001.755  
  21579806.366     5996778.798  
  21425029.414   -41461568.266  
  20415889.948   -61537206.796  
  23275794.499    -4572223.619  
  23140932.366   -58560723.671  
 18  6 25  2 37 40.0000000  0 10G27G30G11G16G23G18G07G08G09G01
  21734963.165     6811746.437  
  23646301.206     2016484.800  
  21827639.367     3106722.691  
  23375038.129     4049419.047  
  24048378.202   -60044756.044  
  21577007.570     5982070.443  
  21422828.027   -41473136.831  
  20416583.167   -61533566.687  
  23277884.009    -4561248.229  
  23137409.524   -58579235.073  
 18  6 25  2 37 45.0000000  0 10G27G30G11G16G23G18G07G08G09G01
  21737452.118     6824821.592  
  23643182.673     2000092.219  
  21824854.094     3092087.431  
  23377044.862     4059951.963  
  24051092.382   -60030510.673  
  21574211.708     5967372.320  
  21420628.430   -41484694.475  
  20417276.602   -61529916.816  
  23279972.733    -4550266.265  
  23133887.615   -58597742.775  
 18  6 25  2 37 50.0000000  0 10G27G30G11G16G23G18G07G08G09G01
  21739941.036     6837900.922  
  23640062.387     1983704.115  
  21822069.646     3077461.305  
  23379048.269     4070487.110  
  24053803.808   -60016265.772  
  21571416.385     5952684.283  
  21418430.801   -41496241.319  
  20417974.152   -61526257.192  
  23282064.428    -4539277.901  
  23130365.241   -58616246.955  
 18  6 25  2 37 55.0000000  0 10G27G30G11G16G23G18G07G08G09G01
  21742430.062     6850984.681  
  23636946.074     1967320.813  
  21819288.883     3062844.527  
  23381052.787     4081024.764  
  24056515.915   -60002021.106  
  21568623.459     5938006.558  
  21416236.143   -41507777.174  
  20418671.525   -61522587.549  
  23284159.809    -4528282.905  
  23126845.409   -58634747.371  
 18  6 25  2 38  0.0000000  0 10G27G30G11G16G23G18G07G08G09G01
  21744921.188     6864074.047  
  23633829.428     1950943.550  
  21816509.648     3048238.381  
  23383059.547     4091566.085  
  24059227.975   -59987775.516  
  21565831.918     5923340.479  
  21414042.869   -41519300.718  
  20419372.285   -61518906.842  
  23286252.996    -4517280.019  
  23123323.955   -58653242.700  
 18  6 25  2 38  5.0000000  0 10G27G30G11G16G23G18G07G08G09G01
  21747412.831     6877164.976  
  23630713.441     1934568.263  
  21813732.073     3033638.773  
  23385065.392     4102107.040  
  24061938.691   -59973533.032  
  21563043.611     5908681.885  
  21411851.256   -41530816.065  
  20420073.132   -61515219.033  
  23288346.271    -4506273.373  
  23119805.164   -58671737.080  
 18  6 25  2 38 10.0000000  0 10G27G30G11G16G23G18G07G08G09G01
  21749903.594     6890257.746  
  23627598.721     1918195.242  
  21810956.052     3019046.014  
  23387073.363     4112648.020  
  24064649.530   -59959293.308  
  21560254.712     5894031.180  
  21409662.627   -41542322.795  
  20420776.677   -61511523.851  
  23290442.101    -4495262.680  
  23116286.496   -58690230.093  
 18  6 25  2 38 15.0000000  0 10G27G30G11G16G23G18G07G08G09G01
  21752396.076     6903352.606  
  23624480.569     1901824.812  
  21808180.319     3004460.355  
  23389075.183     4123189.196  
  24067358.510   -59945056.208  
  21557467.818     5879388.539  
  21407474.143   -41553820.800  
  20421481.798   -61507821.116  
  23292538.218    -4484247.681  
  23112766.685   -58708721.596  
 18  6 25  2 38 20.0000000  0 10G27G30G11G16G23G18G07G08G09G01
  21754888.923     6916455.779  
  23621366.788     1885463.117  
  21805407.097     2989888.125  
  23391082.519     4133736.841  
  24070066.996   -59930815.435  
  21554683.577     5864760.318  
  21405289.029   -41565303.692  
  20422188.285   -61504104.491  
  23294636.131    -4473222.157  
  23109250.387   -58727205.237  
 18  6 25  2 38 25.0000000  0 10G27G30G11G16G23G18G07G08G09G01
  21757382.897     6929564.605  
  23618254.278     1869107.652  
  21802636.290     2975326.624  
  23393092.270     4144288.251  
  24072776.610   -59916573.686  
  21551904.042     5850143.759  
  21403106.330   -41576774.171  
  20422898.762   -61500376.613  
  23296734.599    -4462188.758  
  23105736.217   -58745683.685  
 18  6 25  2 38 30.0000000  0 10G27G30G11G16G23G18G07G08G09G01
  21759878.377     6942678.119  
  23615146.707     1852757.359  
  21799866.703     2960774.878  
  23395101.810     4154842.512  
  24075488.159   -59902331.960  
  21549123.294     5835538.065  
  21400925.280   -41588233.228  
  20423609.456   -61496638.637  
  23298836.433    -4451148.490  
  23102216.828   -58764157.880  
 18  6 25  2 38 35.0000000  0 10G27G30G11G16G23G18G07G08G09G01
  21762374.859     6955795.905  
  23612035.846     1836411.952  
  21797100.120     2946232.539  
  23397109.919     4165399.172  
  24078197.704   -59888090.653  
  21546346.266     5820942.742  
  21398747.091   -41599681.175  
  20424323.298   -61492890.800  
  23300938.124    -4440101.731  
  23098703.879   -58782628.248  
 18  6 25  2 38 40.0000000  0 10G27G30G11G16G23G18G07G08G09G01
  21764873.180     6968918.097  
  23608925.679     1820071.377  
  21794333.660     2931699.765  
  23399118.150     4175958.408  
  24080905.225   -59873849.605  
  21543571.792     5806357.959  
  21396571.457   -41611117.881  
  20425037.692   -61489133.019  
  23303039.651    -4429048.409  
  23095190.049   -58801094.570  
 18  6 25  2 38 45.0000000  0 10G27G30G11G16G23G18G07G08G09G01
  21767368.837     6982044.706  
  23605818.572     1803735.905  
  21791570.117     2917176.530  
  23401130.443     4186520.228  
  24083614.805   -59859608.834  
  21540798.233     5791783.832  
  21394395.450   -41622543.369  
  20425755.147   -61485365.318  
  23305147.387    -4417988.509  
  23091676.991   -58819556.881  
 18  6 25  2 38 50.0000000  0 10G27G30G11G16G23G18G07G08G09G01
  21769867.317     6995175.402  
  23602710.710     1787405.050  
  21788808.251     2902662.644  
  23403138.260     4197084.369  
  24086325.490   -59845368.630  
  21538026.637     5777219.942  
  21392225.269   -41633957.866  
  20426474.421   -61481587.962  
  23307251.934    -4406922.296  
  23088164.751   -58838015.410  
 18  6 25  2 38 55.0000000  0 10G27G30G11G16G23G18G07G08G09G01
  21772367.305     7008310.271  
  23599602.640     1771079.116  
  21786048.753     2888158.104  
  23405151.164     4207650.908  
  24089034.965   -59831128.945  
  21535256.120     5762666.460  
  21390054.594   -41645361.262  
  20427194.918   -61477800.842  
  23309360.566    -4395849.721  
  23084653.161   -58856470.045  
 18  6 25  2 39  0.0000000  0 10G27G30G11G16G23G18G07G08G09G01
  21774869.400     7021449.316  
  23596495.246     1754757.974  
  21783290.360     2873662.938  
  23407160.450     4218219.774  
  24091743.971   -59816889.857  
  21532488.426     5748123.379  
  21387885.740   -41656753.592  
  20427917.522   -61474004.094  
  23311469.588    -4384770.799  
  23081141.389   -58874920.866  
 18  6 25  2 39  5.0000000  0 10G27G30G11G16G23G18G07G08G09G01
  21777369.498     7034592.679  
  23593388.429     1738441.848  
  21780532.831     2859177.345  
  23409170.458     4228791.270  
  24094454.414   -59802651.133  
  21529724.315     5733590.904  
  21385720.612   -41668134.629  
  20428642.135   -61470197.426  
  23313578.901    -4373685.404  
  23077631.054   -58893367.636  
 18  6 25  2 39 10.0000000  0 10G27G30G11G16G23G18G07G08G09G01
  21779871.863     7047740.195  
  23590282.020     1722130.553  
  21777778.714     2844701.219  
  23411185.452     4239365.151  
  24097163.976   -59788412.910  
  21526960.325     5719068.916  
  21383556.462   -41679504.558  
  20429367.585   -61466381.051  
  23315689.623    -4362593.639  
  23074121.698   -58911810.406  
 18  6 25  2 39 15.0000000  0 10G27G30G11G16G23G18G07G08G09G01
  21782372.929     7060891.974  
  23587179.893     1705824.301  
  21775026.304     2830234.614  
  23413197.144     4249941.491  
  24099871.811   -59774175.190  
  21524197.755     5704557.559  
  21381396.024   -41690863.260  
  20430095.743   -61462554.948  
  23317800.622    -4351495.479  
  23070613.047   -58930249.220  
 18  6 25  2 39 20.0000000  0 10G27G30G11G16G23G18G07G08G09G01
  21784877.022     7074048.023  
  23584079.647     1689522.981  
  21772275.059     2815777.573  
  23415211.290     4260520.471  
  24102581.526   -59759937.849  
  21521438.640     5690056.735  
  21379236.178   -41702210.674  
  20430825.066   -61458718.960  
  23319913.787    -4340390.872  
  23067104.846   -58948683.932  
 18  6 25  2 39 25.0000000  0 10G27G30G11G16G23G18G07G08G09G01
  21787381.483     7087208.243  
  23580979.627     1673226.591  
  21769525.471     2801330.019  
  23417225.089     4271101.799  
  24105290.751   -59745701.079  
  21518681.468     5675566.509  
  21377079.563   -41713546.925  
  20431557.619   -61454873.231  
  23322028.752    -4329279.989  
  23063597.157   -58967114.661  
 18  6 25  2 39 30.0000000  0 10G27G30G11G16G23G18G07G08G09G01
  21789887.235     7100372.618  
  23577881.900     1656935.107  
  21766777.890     2786891.991  
  23419238.318     4281685.573  
  24108001.554   -59731464.830  
  21515926.732     5661086.736  
  21374924.525   -41724871.953  
  20432290.606   -61451017.773  
  23324143.577    -4318162.797  
  23060091.761   -58985541.385  
 18  6 25  2 39 35.0000000  0 10G27G30G11G16G23G18G07G08G09G01
  21792392.188     7113540.862  
  23574782.371     1640648.408  
  21764032.657     2772463.180  
  23421253.038     4292271.600  
  24110709.698   -59717229.461  
  21513173.343     5646617.340  
  21372770.834   -41736186.025  
  20433027.229   -61447152.838  
  23326258.318    -4307039.487  
  23056585.135   -59003964.281  
 18  6 25  2 39 40.0000000  0 10G27G30G11G16G23G18G07G08G09G01
  21794900.935     7126713.433  
  23571683.489     1624366.819  
  21761288.356     2758044.049  
  23423266.973     4302860.127  
  24113418.058   -59702994.472  
  21510422.174     5632158.658  
  21370620.794   -41747488.745  
  20433764.212   -61443278.001  
  23328379.286    -4295909.789  
  23053080.015   -59022383.047  
 18  6 25  2 39 45.0000000  0 10G27G30G11G16G23G18G07G08G09G01
  21797406.771     7139890.005  
  23568586.132     1608090.023  
  21758546.440     2743634.291  
  23425284.724     4313451.104  
  24116126.799   -59688760.215  
  21507671.958     5617710.484  
  21368471.564   -41758780.293  
  20434502.577   -61439393.615  
  23330497.773    -4284773.978  
  23049575.276   -59040797.889  
 18  6 25  2 39 50.0000000  0 10G27G30G11G16G23G18G07G08G09G01
  21799915.229     7153070.666  
  23565487.533     1591818.244  
  21755806.286     2729234.102  
  23427299.514     4324044.434  
  24118835.299   -59674526.638  
  21504924.077     5603272.834  
  21366324.240   -41770060.633  
  20435243.706   -61435499.562  
  23332616.162    -4273631.917  
  23046072.728   -59059208.680  
 18  6 25  2 39 55.0000000  0 10G27G30G11G16G23G18G07G08G09G01
  21802424.093     7166255.384  
  23562388.481     1575551.478  
  21753067.110     2714843.442  
  23429314.282     4334640.201  
  24121544.778   -59660293.723  
  21502178.606     5588845.776  
  21364180.327   -41781329.738  
  20435986.673   -61431595.829  
  23334738.248    -4262483.576  
  23042570.014   -59077615.415  
 18  6 25  2 40  0.0000000  0 10G27G30G11G16G23G18G07G08G09G01
  21804932.621     7179444.471  
  23559300.684     1559289.912  
  21750330.746     2700462.624  
  23431331.432     4345238.745  
  24124252.919   -59646061.144  
  21499436.662     5574429.559  
  21362039.512   -41792587.357  
  20436731.163   -61427682.273  
  23336863.003    -4251328.811  
  23039066.391   -59096017.788  
 18  6 25  2 40  5.0000000  0 10G27G30G11G16G23G18G07G08G09G01
  21807445.371     7192637.687  
  23556204.803     1543033.309  
  21747595.600     2686091.351  
  23433346.937     4355839.622  
  24126961.562   -59631829.331  
  21496694.504     5560024.067  
  21359899.342   -41803833.693  
  20437478.159   -61423759.058  
  23338987.116    -4240167.936  
  23035567.134   -59114416.090  
 18  6 25  2 40 10.0000000  0 10G27G30G11G16G23G18G07G08G09G01
  21809956.341     7205834.835  
  23553114.297     1526781.707  
  21744863.111     2671729.563  
  23435366.530     4366442.934  
  24129669.856   -59617598.186  
  21493955.432     5545629.120  
  21357759.968   -41815068.811  
  20438227.096   -61419826.188  
  23341111.452    -4229000.883  
  23032064.524   -59132810.360  
 18  6 25  2 40 15.0000000  0 10G27G30G11G16G23G18G07G08G09G01
  21812467.105     7219036.037  
  23550021.295     1510535.106  
  21742132.560     2657377.348  
  23437383.627     4377048.634  
  24132378.659   -59603367.665  
  21491217.727     5531244.836  
  21355624.537   -41826292.672  
  20438976.255   -61415883.714  
  23343238.443    -4217827.656  
  23028565.713   -59151200.546  
 18  6 25  2 40 20.0000000  0 10G27G30G11G16G23G18G07G08G09G01
  21814981.533     7232241.360  
  23546928.237     1494293.722  
  21739402.526     2643034.816  
  23439403.958     4387656.912  
  24135087.549   -59589137.767  
  21488482.542     5516871.312  
  21353490.911   -41837505.141  
  20439728.649   -61411931.515  
  23345362.946    -4206648.208  
  23025067.991   -59169586.437  
 18  6 25  2 40 25.0000000  0 10G27G30G11G16G23G18G07G08G09G01
  21817494.614     7245450.714  
  23543836.980     1478057.334  
  21736673.149     2628701.881  
  23441421.656     4398267.627  
  24137794.663   -59574908.627  
  21485750.016     5502508.472  
  21351359.514   -41848706.277  
  20440483.273   -61407969.746  
  23347492.111    -4195462.582  
  23021569.638   -59187968.178  
 18  6 25  2 40 30.0000000  0  9G27G30G11G16G18G07G08G09G01
  21820010.014     7258664.120  
  23540751.476     1461826.002  
  21733949.238     2614378.566  
  23443439.954     4408880.762  
  21483019.380     5488156.339  
  21349230.150   -41859896.033  
  20441238.929   -61403998.394  
  23349621.592    -4184270.794  
  23018070.741   -59206345.760  
 18  6 25  2 40 35.0000000  0 10G27G30G11G16G28G18G07G08G09G01
  21822522.406     7271881.593  
  23537663.107     1445599.881  
  21731224.466     2600064.915  
  23445463.544     4419496.384  
  25238364.115    41540309.028  
  21480290.315     5473815.041  
  21347102.787   -41871074.422  
  20441996.442   -61400017.457  
  23351752.215    -4173072.944  
  23014576.134   -59224719.119  
 18  6 25  2 40 40.0000000  0 10G27G30G11G16G28G18G07G08G09G01
  21825040.346     7285103.265  
  23534578.712     1429378.999  
  21728504.240     2585761.066  
  23447482.809     4430114.705  
  25236422.739    41530107.821  
  21477562.649     5459484.600  
  21344977.108   -41882241.212  
  20442755.353   -61396026.614  
  23353881.231    -4161868.648  
  23011080.636   -59243088.054  
 18  6 25  2 40 45.0000000  0 10G27G30G11G16G28G18G07G08G09G01
  21827557.341     7298329.141  
  23531492.227     1413163.447  
  21725784.213     2571467.066  
  23449504.133     4440735.614  
  25234480.846    41519905.375  
  21474839.617     5445165.057  
  21342854.633   -41893396.454  
  20443516.466   -61392026.011  
  23356008.444    -4150658.250  
  23007585.337   -59261452.640  
 18  6 25  2 40 50.0000000  0 10G27G30G11G16G28G18G07G08G09G01
  21830074.962     7311558.854  
  23528408.944     1396952.788  
  21723065.099     2557182.543  
  23451527.944     4451358.730  
  25232533.713    41509701.470  
  21472115.352     5430856.239  
  21340734.073   -41904540.439  
  20444279.637   -61388016.080  
  23358138.572    -4139441.879  
  23004092.096   -59279813.065  
 18  6 25  2 40 55.0000000  0 10G27G30G11G16G28G18G07G08G09G01
  21832592.682     7324792.392  
  23525325.044     1380747.085  
  21720349.232     2542907.487  
  23453550.136     4461984.238  
  25230590.542    41499495.897  
  21469393.617     5416557.984  
  21338616.329   -41915673.260  
  20445044.481   -61383996.697  
  23360270.659    -4128219.631  
  23000599.526   -59298169.488  
 18  6 25  2 41  0.0000000  0 10G27G30G11G16G28G18G07G08G09G01
  21835111.876     7338029.815  
  23522239.471     1364546.533  
  21717634.983     2528642.036  
  23455569.081     4472612.113  
  25228651.708    41489288.955  
  21466674.789     5402270.462  
  21336499.489   -41926794.739  
  20445811.658   -61379967.757  
  23362404.507    -4116991.345  
  22997105.855   -59316521.612  
 18  6 25  2 41  5.0000000  0 10G27G30G11G16G28G18G07G08G09G01
  21837632.920     7351271.423  
  23519154.603     1348351.367  
  21714923.870     2514386.470  
  23457594.455     4483242.747  
  25226708.140    41479080.804  
  21463958.096     5387993.960  
  21334385.499   -41937904.582  
  20446580.112   -61375929.043  
  23364548.360    -4105756.841  
  22993616.322   -59334869.338  
 18  6 25  2 41 10.0000000  0 10G27G30G11G16G28G18G07G08G09G01
  21840151.596     7364516.898  
  23516073.806     1332161.193  
  21712209.818     2500140.479  
  23459617.747     4493875.659  
  25224766.498    41468871.146  
  21461244.187     5373728.197  
  21332273.292   -41949003.036  
  20447350.062   -61371880.862  
  23366699.147    -4094516.413  
  22990124.565   -59353212.869  
 18  6 25  2 41 15.0000000  0 10G27G30G11G16G28G18G07G08G09G01
  21842672.258     7377765.881  
  23512994.708     1315975.892  
  21709501.185     2485903.760  
  23461640.019     4504510.678  
  25222825.697    41458659.691  
  21458530.689     5359472.809  
  21330163.784   -41960090.383  
  20448122.426   -61367823.601  
  23368842.904    -4083270.382  
  22986634.364   -59371552.511  
 18  6 25  2 41 20.0000000  0 10G27G30G11G16G28G18G07G08G09G01
  21845195.161     7391019.015  
  23509918.424     1299795.881  
  21706794.937     2471676.964  
  23463663.960     4515148.476  
  25220883.130    41448447.051  
  21455820.005     5345228.412  
  21328054.945   -41971166.099  
  20448896.889   -61363756.581  
  23370986.184    -4072018.109  
  22983144.974   -59389887.585  
 18  6 25  2 41 25.0000000  0 10G27G30G11G16G28G18G07G08G09G01
  21847717.163     7404276.070  
  23506841.956     1283621.135  
  21704089.362     2457459.902  
  23465688.576     4525788.640  
  25218940.092    41438233.035  
  21453111.426     5330994.926  
  21325949.927   -41982230.361  
  20449672.312   -61359680.014  
  23373127.133    -4060759.912  
  22979657.259   -59408218.384  
 18  6 25  2 41 30.0000000  0 10G27G30G11G16G28G18G07G08G09G01
  21850242.742     7417537.494  
  23503765.056     1267451.993  
  21701385.074     2443253.055  
  23467714.907     4536431.694  
  25216996.052    41428018.034  
  21450405.993     5316772.898  
  21323847.198   -41993282.702  
  20450450.166   -61355593.539  
  23375270.227    -4049495.283  
  22976169.257   -59426544.363  
 18  6 25  2 41 35.0000000  0 10G27G30G11G16G28G18G07G08G09G01
  21852765.909     7430802.048  
  23500691.182     1251287.270  
  21698683.955     2429055.083  
  23469740.972     4547076.490  
  25215053.892    41417800.841  
  21447700.867     5302560.910  
  21321746.492   -42004324.446  
  20451229.757   -61351498.376  
  23377414.916    -4038225.500  
  22972681.275   -59444866.772  
 18  6 25  2 41 40.0000000  0 10G27G30G11G16G28G18G07G08G09G01
  21855291.164     7444071.065  
  23497614.531     1235128.375  
  21695983.493     2414867.508  
  23471765.691     4557724.278  
  25213108.526    41407582.831  
  21444998.974     5288360.446  
  21319647.159   -42015353.996  
  20452010.006   -61347393.050  
  23379560.548    -4026949.216  
  22969198.386   -59463184.231  
 18  6 25  2 41 45.0000000  0 10G27G30G11G16G28G18G07G08G09G01
  21857816.033     7457344.003  
  23494541.216     1218974.763  
  21693286.079     2400689.725  
  23473794.461     4568374.495  
  25211164.349    41397363.475  
  21442298.699     5274170.869  
  21317550.446   -42026372.062  
  20452793.304   -61343278.283  
  23381705.651    -4015666.998  
  22965713.395   -59481497.277  
 18  6 25  2 41 50.0000000  0 10G27G30G11G16G28G18G07G08G09G01
  21860344.068     7470620.443  
  23491465.199     1202826.147  
  21690588.541     2386521.358  
  23475822.533     4579026.859  
  25209217.184    41387142.354  
  21439601.017     5259991.867  
  21315455.467   -42037378.971  
  20453578.336   -61339154.329  
  23383852.490    -4004379.247  
  22962227.992   -59499806.256  
 18  6 25  2 41 55.0000000  0 10G27G30G11G16G28G18G07G08G09G01
  21862869.985     7483901.104  
  23488391.499     1186683.125  
  21687896.038     2372363.061  
  23477848.343     4589680.046  
  25207272.193    41376920.135  
  21436903.792     5245824.174  
  21313364.666   -42048373.958  
  20454364.970   -61335020.612  
  23386002.217    -3993085.262  
  22958744.906   -59518110.493  
 18  6 25  2 42  0.0000000  0 10G27G30G11G16G28G18G07G08G09G01
  21865398.827     7497185.733  
  23485321.870     1170545.510  
  21685202.455     2358214.715  
  23479875.935     4600337.760  
  25205327.839    41366696.595  
  21434210.638     5231667.520  
  21311273.786   -42059357.306  
  20455152.814   -61330877.290  
  23388154.585    -3981785.253  
  22955264.174   -59536410.185  
 18  6 25  2 42  5.0000000  0 10G27G30G11G16G28G18G07G08G09G01
  21867927.536     7510473.838  
  23482250.390     1154412.721  
  21682512.458     2344075.790  
  23481907.113     4610997.574  
  25203382.064    41356471.281  
  21431518.781     5217521.441  
  21309185.204   -42070329.432  
  20455943.098   -61326724.837  
  23390304.816    -3970479.717  
  22951782.450   -59554705.780  
 18  6 25  2 42 10.0000000  0 10G27G30G11G16G28G18G07G08G09G01
  21870456.128     7523765.632  
  23479184.804     1138285.097  
  21679824.061     2329946.509  
  23483934.454     4621659.721  
  25201435.313    41346244.384  
  21428829.097     5203386.132  
  21307099.368   -42081290.151  
  20456735.699   -61322563.098  
  23392458.364    -3959168.536  
  22948300.037   -59572997.116  
 18  6 25  2 42 15.0000000  0 10G27G30G11G16G28G18G07G08G09G01
  21872986.101     7537061.954  
  23476116.877     1122163.593  
  21677137.046     2315827.774  
  23485961.458     4632325.085  
  25199486.937    41336016.729  
  21426140.650     5189262.601  
  21305017.059   -42092238.580  
  20457528.250   -61318391.227  
  23394611.003    -3947850.808  
  22944820.578   -59591283.224  
 18  6 25  2 42 20.0000000  0 10G27G30G11G16G28G18G07G08G09G01
  21875517.305     7550362.100  
  23473050.182     1106047.336  
  21674452.549     2301718.867  
  23487993.272     4642992.885  
  25197541.224    41325787.779  
  21423455.867     5175150.132  
  21302935.265   -42103175.371  
  20458324.321   -61314209.907  
  23396767.449    -3936527.267  
  22941341.778   -59609564.855  
 18  6 25  2 42 25.0000000  0 10G27G30G11G16G28G18G07G08G09G01
  21878047.303     7563665.343  
  23469984.141     1089935.779  
  21671769.279     2287619.078  
  23490023.736     4653662.530  
  25195596.309    41315556.588  
  21420772.168     5161048.002  
  21300855.271   -42114101.304  
  20459121.762   -61310019.881  
  23398921.831    -3925198.593  
  22937863.919   -59627842.694  
 18  6 25  2 42 30.0000000  0 10G27G30G11G16G28G18G07G08G09G01
  21880581.884     7576972.237  
  23466917.676     1073829.369  
  21669088.017     2273529.018  
  23492053.775     4664334.464  
  25193649.824    41305323.897  
  21418090.334     5146956.743  
  21298778.000   -42125015.741  
  20459920.639   -61305820.601  
  23401079.222    -3913864.286  
  22934388.353   -59646116.119  
 18  6 25  2 42 35.0000000  0 10G27G30G11G16G28G18G07G08G09G01
  21883113.656     7590283.311  
  23463852.836     1057728.802  
  21666408.381     2259449.194  
  23494085.727     4675009.245  
  25191702.675    41295090.176  
  21415411.556     5132876.960  
  21296705.216   -42135918.182  
  20460722.858   -61301611.604  
  23403237.667    -3902523.807  
  22930911.266   -59664384.654  
 18  6 25  2 42 40.0000000  0 10G27G30G11G16G28G18G07G08G09G01
  21885647.048     7603598.219  
  23460791.477     1041633.632  
  21663730.365     2245379.321  
  23496115.864     4685686.523  
  25189754.141    41284855.004  
  21412733.826     5118808.277  
  21294632.622   -42146808.914  
  20461524.695   -61297393.107  
  23405396.730    -3891177.508  
  22927436.084   -59682648.627  
 18  6 25  2 42 45.0000000  0 10G27G30G11G16G28G18G07G08G09G01
  21888182.873     7616917.266  
  23457731.263     1025544.194  
  21661056.500     2231319.674  
  23498149.723     4696366.750  
  25187807.756    41274618.823  
  21410059.245     5104751.008  
  21292562.032   -42157687.651  
  20462329.108   -61293164.824  
  23407557.941    -3879825.102  
  22923962.192   -59700907.627  
 18  6 25  2 42 50.0000000  0 10G27G30G11G16G28G18G07G08G09G01
  21890716.907     7630239.844  
  23454670.403     1009459.908  
  21658380.986     2217269.675  
  23500181.790     4707049.157  
  25185859.006    41264381.079  
  21407386.164     5090704.623  
  21290495.089   -42168554.928  
  20463135.879   -61288927.339  
  23409718.505    -3868467.225  
  22920485.936   -59719162.300  
 18  6 25  2 42 55.0000000  0 10G27G30G11G16G28G18G07G08G09G01
  21893253.246     7643565.813  
  23451609.272      993380.732  
  21655711.069     2203229.222  
  23502214.303     4717733.762  
  25183908.412    41254141.372  
  21404715.388     5076669.014  
  21288427.016   -42179410.881  
  20463943.095   -61284680.885  
  23411879.514    -3857103.945  
  22917014.561   -59737412.711  
 18  6 25  2 43  0.0000000  0 10G27G30G11G16G28G18G07G08G09G01
  21895789.590     7656895.524  
  23448552.296      977306.872  
  21653041.585     2189198.655  
  23504246.534     4728420.802  
  25181960.970    41243900.320  
  21402046.907     5062644.498  
  21286364.672   -42190255.144  
  20464754.323   -61280425.043  
  23414043.676    -3845734.987  
  22913542.618   -59755658.572  
 18  6 25  2 43  5.0000000  0 10G27G30G11G16G28G18G07G08G09G01
  21898327.312     7670229.059  
  23445494.981      961238.639  
  21650372.764     2175178.082  
  23506282.289     4739110.292  
  25180010.328    41233657.909  
  21399381.091     5048631.204  
  21284304.135   -42201087.660  
  20465564.496   -61276159.747  
  23416207.642    -3834360.266  
  22910071.481   -59773899.703  
 18  6 25  2 43 10.0000000  0 10G27G30G11G16G28G18G07G08G09G01
  21900864.137     7683566.347  
  23442437.770      945175.879  
  21647706.052     2161167.506  
  23508317.577     4749802.433  
  25178060.935    41223414.082  
  21396715.523     5034629.107  
  21282244.418   -42211908.425  
  20466378.781   -61271885.016  
  23418373.143    -3822979.782  
  22906599.447   -59792136.177  
 18  6 25  2 43 15.0000000  0 10G27G30G11G16G28G18G07G08G09G01
  21903402.924     7696907.398  
  23439381.807      929118.633  
  21645041.874     2147166.764  
  23510355.686     4760497.019  
  25176114.363    41213168.836  
  21394052.633     5020638.261  
  21280186.377   -42222717.421  
  20467194.169   -61267601.054  
  23420539.606    -3811593.645  
  22903131.236   -59810367.897  
 18  6 25  2 43 20.0000000  0 10G27G30G11G16G28G18G07G08G09G01
  21905943.264     7710252.303  
  23436329.113      913066.934  
  21642379.535     2133176.151  
  23512390.626     4771194.296  
  25174163.906    41202922.380  
  21391392.154     5006658.726  
  21278132.322   -42233514.504  
  20468010.681   -61263307.559  
  23422709.051    -3800201.681  
  22899663.432   -59828594.877  
 18  6 25  2 43 25.0000000  0 10G27G30G11G16G28G18G07G08G09G01
  21908483.503     7723600.768  
  23433272.740      897020.661  
  21639719.384     2119195.435  
  23514425.464     4781893.950  
  25172214.206    41192674.374  
  21388735.008     4992690.267  
  21276080.884   -42244299.947  
  20468829.381   -61259004.861  
  23424879.111    -3788804.205  
  22896194.382   -59846817.257  
 18  6 25  2 43 30.0000000  0 10G27G30G11G16G28G18G07G08G09G01
  21911024.089     7736953.264  
  23430219.720      880980.182  
  21637060.438     2105225.027  
  23516460.076     4792596.423  
  25170262.135    41182425.266  
  21386078.209     4978733.321  
  21274029.221   -42255073.324  
  20469650.717   -61254692.508  
  23427048.230    -3777400.755  
  22892727.826   -59865034.613  
 18  6 25  2 43 35.0000000  0 10G27G30G11G16G28G18G07G08G09G01
  21913564.542     7750309.155  
  23427168.713      864944.961  
  21634404.222     2091264.309  
  23518496.702     4803301.123  
  25168313.365    41172174.351  
  21383424.854     4964787.289  
  21271982.433   -42265835.242  
  20470472.206   -61250371.094  
  23429219.506    -3765991.984  
  22889262.854   -59883247.576  
 18  6 25  2 43 40.0000000  0 10G27G30G11G16G28G18G07G08G09G01
  21916106.976     7763668.785  
  23424121.118      848915.325  
  21631749.414     2077313.641  
  23520533.736     4814008.424  
  25166361.425    41161922.118  
  21380772.908     4950852.606  
  21269936.195   -42276585.253  
  20471296.536   -61246040.247  
  23431392.191    -3754577.524  
  22885798.289   -59901455.746  
 18  6 25  2 43 45.0000000  0 10G27G30G11G16G28G18G07G08G09G01
  21918650.612     7777031.822  
  23421068.572      832890.989  
  21629096.095     2063372.679  
  23522569.825     4824717.941  
  25164409.256    41151668.172  
  21378123.739     4936928.894  
  21267893.878   -42287323.703  
  20472122.783   -61241700.404  
  23433565.076    -3743157.719  
  22882334.927   -59919659.399  
 18  6 25  2 43 50.0000000  0 10G27G30G11G16G28G18G07G08G09G01
  21921194.238     7790398.721  
  23418022.169      816872.429  
  21626446.486     2049442.013  
  23524611.341     4835430.193  
  25162457.792    41141412.938  
  21375476.133     4923016.678  
  21265852.267   -42298050.114  
  20472950.736   -61237351.106  
  23435739.238    -3731732.134  
  22878870.409   -59937858.090  
 18  6 25  2 43 55.0000000  0 10G27G30G11G16G28G18G07G08G09G01
  21923739.397     7803769.190  
  23414974.008      800859.315  
  21623796.835     2035521.286  
  23526650.241     4846144.904  
  25160508.291    41131156.228  
  21372830.918     4909115.706  
  21263813.333   -42308764.819  
  20473779.079   -61232992.529  
  23437914.791    -3720301.054  
  22875408.712   -59956052.104  
 18  6 25  2 44  0.0000000  0 10G27G30G11G16G28G18G07G08G09G01
  21926283.776     7817143.188  
  23411926.354      784851.696  
  21621149.839     2021610.492  
  23528687.502     4856861.959  
  25158556.149    41120897.998  
  21370187.643     4895225.964  
  21261777.053   -42319467.728  
  20474610.218   -61228624.754  
  23440091.137    -3708864.574  
  22871946.665   -59974241.400  
 18  6 25  2 44  5.0000000  0 10G27G30G11G16G28G18G07G08G09G01
  21928829.315     7830521.066  
  23408881.578      768849.909  
  21618505.149     2007709.953  
  23530730.646     4867581.907  
  25156601.734    41110638.542  
  21367546.529     4881347.747  
  21259741.648   -42330158.582  
  20475444.092   -61224247.459  
  23442267.929    -3697422.319  
  22868485.920   -59992425.712  
 18  6 25  2 44 10.0000000  0 10G27G30G11G16G28G18G07G08G09G01
  21931375.848     7843902.678  
  23405838.798      752853.860  
  21615860.593     1993819.584  
  23532768.630     4878304.390  
  25154650.172    41100377.848  
  21364907.697     4867480.969  
  21257709.954   -42340837.396  
  20476278.244   -61219860.808  
  23444444.712    -3685974.392  
  22865028.602   -60010605.031  
 18  6 25  2 44 15.0000000  0 10G27G30G11G16G28G18G07G08G09G01
  21933923.638     7857287.877  
  23402795.986      736863.323  
  21613219.726     1979939.278  
  23534809.731     4889029.380  
  25152695.861    41090115.578  
  21362270.408     4853625.526  
  21255680.663   -42351504.397  
  20477115.369   -61215464.966  
  23446622.752    -3674521.018  
  22861569.679   -60028779.563  
 18  6 25  2 44 20.0000000  0 10G27G30G11G16G28G18G07G08G09G01
  21936471.220     7870676.773  
  23399755.686      720878.560  
  21610580.656     1966069.119  
  23536850.769     4899756.922  
  25150736.906    41079851.897  
  21359637.204     4839781.443  
  21253652.595   -42362159.406  
  20477954.005   -61211059.755  
  23448801.158    -3663062.027  
  22858111.551   -60046949.192  
 18  6 25  2 44 25.0000000  0 10G27G30G11G16G28G18G07G08G09G01
  21939019.659     7884069.924  
  23396716.242      704900.114  
  21607942.585     1952209.701  
  23538894.236     4910487.688  
  25148783.674    41069587.501  
  21357003.856     4825949.479  
  21251627.530   -42372801.835  
  20478794.213   -61206644.659  
  23450983.997    -3651596.911  
  22854655.424   -60065113.254  
 18  6 25  2 44 30.0000000  0 10G27G30G11G16G28G18G07G08G09G01
  21941569.461     7897465.948  
  23393673.725      688926.566  
  21605307.022     1938359.662  
  23540938.351     4921220.163  
  25146830.229    41059320.903  
  21354375.590     4812128.121  
  21249603.542   -42383433.060  
  20479634.924   -61202221.062  
  23453165.051    -3640127.128  
  22851199.228   -60083273.160  
 18  6 25  2 44 35.0000000  0 10G27G30G11G16G28G18G07G08G09G01
  21944118.778     7910865.291  
  23390636.591      672958.429  
  21602673.836     1924519.505  
  23542982.983     4931955.034  
  25144886.174    41049052.620  
  21351746.840     4798317.930  
  21247584.077   -42394052.638  
  20480479.302   -61197788.432  
  23455351.344    -3628652.062  
  22847743.407   -60101428.389  
 18  6 25  2 44 40.0000000  0 10G27G30G11G16G28G18G07G08G09G01
  21946669.363     7924268.081  
  23387597.433      656995.900  
  21600040.772     1910689.319  
  23545025.019     4942692.248  
  25142952.258    41038782.787  
  21349121.503     4784519.056  
  21245565.880   -42404660.417  
  20481324.946   -61193346.770  
  23457535.041    -3617171.705  
  22844288.996   -60119578.892  
 18  6 25  2 44 45.0000000  0 10G27G30G11G16G28G18G07G08G09G01
  21949220.463     7937674.414  
  23384560.078      641039.067  
  21597412.231     1896869.260  
  23547069.288     4953432.046  
  25141000.112    41028511.730  
  21346496.254     4770731.516  
  21243547.483   -42415256.218  
  20482170.963   -61188895.906  
  23459722.831    -3605685.905  
  22840835.530   -60137724.426  
 18  6 25  2 44 50.0000000  0 10G27G30G11G16G28G18G07G08G09G01
  21951771.283     7951084.556  
  23381526.163      625088.123  
  21594784.411     1883059.523  
  23549110.414     4964174.547  
  25139046.827    41018239.274  
  21343875.874     4756955.648  
  21241533.813   -42425839.829  
  20483019.275   -61184435.553  
  23461911.055    -3594194.446  
  22837386.648   -60155864.838  
 18  6 25  2 44 55.0000000  0 10G27G30G11G16G28G18G07G08G09G01
  21954325.238     7964498.160  
  23378491.520      609142.807  
  21592158.296     1869259.906  
  23551154.962     4974919.514  
  25137082.941    41007965.200  
  21341256.627     4743191.170  
  21239521.848   -42436411.551  
  20483869.148   -61179966.071  
  23464097.407    -3582697.672  
  22833933.891   -60174000.329  
 18  6 25  2 45  0.0000000  0 10G27G30G11G16G28G18G07G08G09G01
  21956878.592     7977915.206  
  23375458.565      593203.137  
  21589534.727     1855470.320  
  23553200.768     4985666.860  
  25135126.753    40997689.740  
  21338637.351     4729438.101  
  21237513.145   -42446971.372  
  20484722.570   -61175487.499  
  23466287.021    -3571195.603  
  22830483.966   -60192130.994  
 18  6 25  2 45  5.0000000  0 10G27G30G11G16G28G18G07G08G09G01
  21959431.835     7991335.957  
  23372426.788      577269.424  
  21586912.908     1841691.123  
  23555242.744     4996417.002  
  25133163.443    40987412.811  
  21336024.260     4715696.795  
  21235505.047   -42457518.959  
  20485576.454   -61170999.540  
  23468478.385    -3559687.936  
  22827033.931   -60210256.411  
 18  6 25  2 45 10.0000000  0  9G27G30G11G16G18G07G08G09G01
  21961986.463     8004760.302  
  23369396.538      561341.505  
  21584292.044     1827922.112  
  23557288.251     5007169.638  
  21333411.982     4701967.040  
  21233500.337   -42468054.508  
  20486433.153   -61166502.352  
  23470669.416    -3548174.871  
  22823586.425   -60228376.807  
 18  6 25  2 45 15.0000000  0  9G27G30G11G16G18G07G08G09G01
  21964541.401     8018188.083  
  23366366.312      545419.302  
  21581673.494     1814163.248  
  23559336.930     5017924.861  
  21330800.587     4688248.787  
  21231497.941   -42478578.024  
  20487290.735   -61161996.055  
  23472862.618    -3536656.498  
  22820138.371   -60246492.228  
 18  6 25  2 45 20.0000000  0  9G27G30G11G16G18G07G08G09G01
  21967095.492     8031619.555  
  23363335.668      529503.047  
  21579057.101     1800414.791  
  23561388.053     5028682.799  
  21328194.353     4674542.213  
  21229497.129   -42489089.333  
  20488149.615   -61157480.312  
  23475054.257    -3525132.623  
  22816692.188   -60264602.421  
 18  6 25  2 45 25.0000000  0  9G27G30G11G16G18G07G08G09G01
  21969652.142     8045054.299  
  23360308.729      513592.334  
  21576443.125     1786676.272  
  23563437.013     5039443.004  
  21325585.385     4660846.910  
  21227500.023   -42499588.893  
  20489009.625   -61152955.796  
  23477249.314    -3513603.688  
  22813249.137   -60282707.897  
 18  6 25  2 45 30.0000000  0  9G27G30G11G16G18G07G08G09G01
  21972211.734     8058492.315  
  23357280.867      497687.276  
  21573829.657     1772947.798  
  23565485.194     5050205.624  
  21322981.791     4647162.947  
  21225504.139   -42510076.499  
  20489873.291   -61148422.277  
  23479442.161    -3502069.593  
  22809803.733   -60300808.411  
 18  6 25  2 45 35.0000000  0  9G27G30G11G16G18G07G08G09G01
  21974768.461     8071933.920  
  23354257.582      481788.156  
  21571219.335     1759229.662  
  23567532.228     5060970.788  
  21320381.342     4633490.706  
  21223511.832   -42520551.972  
  20490737.813   -61143879.558  
  23481636.437    -3490530.169  
  22806361.475   -60318903.780  
 18  6 25  2 45 40.0000000  0  9G27G30G11G16G18G07G08G09G01
  21977328.071     8085378.878  
  23351231.742      465894.722  
  21568611.610     1745521.681  
  23569579.140     5071738.496  
  21317780.915     4619829.919  
  21221519.688   -42531015.433  
  20491602.786   -61139327.793  
  23483830.447    -3478985.553  
  22802918.951   -60336994.144  
 18  6 25  2 45 45.0000000  0 10G27G30G11G16G23G18G07G08G09G01
  21979886.645     8098827.423  
  23348210.589      450007.283  
  21566004.565     1731824.101  
  23571626.589     5082508.824  
  24310693.361    56408188.275  
  21315184.172     4606180.871  
  21219532.231   -42541466.688  
  20492471.157   -61134766.736  
  23486027.570    -3467435.573  
  22799474.246   -60355079.305  
 18  6 25  2 45 50.0000000  0 10G27G30G11G16G23G18G07G08G09G01
  21982447.264     8112279.659  
  23345187.761      434125.875  
  21563399.709     1718137.019  
  23573673.222     5093281.978  
  24313386.340    56422343.119  
  21312589.762     4592543.684  
  21217545.389   -42551905.560  
  20493340.430   -61130196.390  
  23488226.310    -3455880.085  
  22796035.450   -60373159.073  
 18  6 25  2 45 55.0000000  0 10G27G30G11G16G23G18G07G08G09G01
  21985007.173     8125735.410  
  23342166.656      418250.448  
  21560797.148     1704460.242  
  23575719.288     5104057.732  
  24316080.183    56436496.579  
  21309996.645     4578918.237  
  21215562.702   -42562332.262  
  20494212.284   -61125616.885  
  23490429.634    -3444319.271  
  22792595.515   -60391233.640  
 18  6 25  2 46  0.0000000  0 10G27G30G11G16G23G18G07G08G09G01
  21987567.179     8139194.430  
  23339148.081      402380.703  
  21558197.116     1690793.585  
  23577764.879     5114835.914  
  24318774.267    56450648.276  
  21307406.201     4565304.263  
  21213578.681   -42572746.942  
  20495086.667   -61121028.521  
  23492630.909    -3432753.347  
  22789156.679   -60409303.221  
 18  6 25  2 46  5.0000000  0 10G27G30G11G16G23G18G07G08G09G01
  21990129.286     8152656.733  
  23336128.171      386516.786  
  21555598.183     1677137.092  
  23579812.856     5125616.496  
  24321463.438    56464798.248  
  21304817.856     4551701.808  
  21211598.477   -42583149.595  
  20495961.290   -61116431.119  
  23494833.425    -3421182.387  
  22785718.225   -60427367.768  
 18  6 25  2 46 10.0000000  0 10G27G30G11G16G23G18G07G08G09G01
  21992691.002     8166122.463  
  23333109.445      370658.713  
  21552998.859     1663490.902  
  23581862.875     5136399.642  
  24324157.228    56478946.631  
  21302230.982     4538111.065  
  21209621.747   -42593540.108  
  20496836.382   -61111824.558  
  23497037.411    -3409606.160  
  22782283.674   -60445427.108  
 18  6 25  2 46 15.0000000  0 10G27G30G11G16G23G18G07G08G09G01
  21995256.311     8179591.618  
  23330092.739      354806.643  
  21550406.278     1649855.041  
  23583913.197     5147185.294  
  24326846.599    56493093.486  
  21299647.415     4524531.914  
  21207647.465   -42603918.429  
  20497715.783   -61107208.850  
  23499242.273    -3398024.791  
  22778845.706   -60463481.250  
 18  6 25  2 46 20.0000000  0 10G27G30G11G16G23G18G07G08G09G01
  21997819.577     8193064.142  
  23327077.996      338960.429  
  21547813.083     1636229.454  
  23585959.472     5157973.477  
  24329540.078    56507238.602  
  21297065.095     4510964.461  
  21205674.574   -42614284.599  
  20498596.288   -61102584.221  
  23501446.664    -3386438.227  
  22775412.418   -60481530.194  
 18  6 25  2 46 25.0000000  0 10G27G30G11G16G23G18G07G08G09G01
  22000384.550     8206539.748  
  23324064.387      323119.858  
  21545221.738     1622613.920  
  23588010.887     5168763.954  
  24332230.399    56521381.870  
  21294486.199     4497408.447  
  21203704.105   -42624638.845  
  20499477.354   -61097950.857  
  23503653.191    -3374846.843  
  22771978.119   -60499574.244  
 18  6 25  2 46 30.0000000  0 10G27G30G11G16G23G18G07G08G09G01
  22002947.140     8220018.438  
  23321051.401      307284.964  
  21542633.306     1609008.401  
  23590059.635     5179556.648  
  24334921.629    56535523.133  
  21291907.926     4483863.884  
  21201736.405   -42634981.206  
  20500360.332   -61093308.779  
  23505859.769    -3363250.613  
  22768545.730   -60517613.310  
 18  6 25  2 46 35.0000000  0  9G27G30G11G23G18G07G08G09G01
  22005513.931     8233500.646  
  23318039.037      291456.184  
  21540045.067     1595413.386  
  24337613.054    56549663.003  
  21289334.140     4470331.232  
  21199770.044   -42645311.169  
  20501246.222   -61088657.426  
  23508067.399    -3351649.092  
  22765116.254   -60535646.972  
 18  6 25  2 46 40.0000000  0  9G27G30G11G23G18G07G08G09G01
  22008081.167     8246986.358  
  23315027.692      275633.497  
  21537460.994     1581828.811  
  24340301.345    56563801.232  
  21286759.797     4456810.390  
  21197806.704   -42655628.803  
  20502132.414   -61083996.919  
  23510275.045    -3340042.320  
  22761684.504   -60553675.228  
 18  6 25  2 46 45.0000000  0  9G27G30G11G23G18G07G08G09G01
  22010645.892     8260475.599  
  23312017.126      259817.001  
  21534877.415     1568254.868  
  24342994.138    56577937.964  
  21284188.667     4443301.539  
  21195845.145   -42665933.984  
  20503021.676   -61079327.175  
  23512484.187    -3328430.267  
  22758254.107   -60571698.027  
 18  6 25  2 46 50.0000000  0 10G27G30G11G16G23G18G07G08G09G01
  22013215.634     8273968.118  
  23309007.714      244006.475  
  21532296.849     1554691.213  
  23598275.475     5222754.685  
  24345684.220    56592072.946  
  21281621.695     4429804.425  
  21193886.886   -42676226.992  
  20503911.519   -61074648.460  
  23514693.910    -3316813.212  
  22754824.148   -60589715.558  
 18  6 25  2 46 55.0000000  0 10G27G30G11G16G23G18G07G08G09G01
  22015783.983     8287464.113  
  23306001.202      228202.088  
  21529717.752     1541138.119  
  23600327.262     5233560.726  
  24348373.481    56606206.317  
  21279056.049     4416319.167  
  21191930.812   -42686507.550  
  20504804.547   -61069960.619  
  23516901.953    -3305190.946  
  22751396.945   -60607727.657  
 18  6 25  2 47  0.0000000  0 10G27G30G11G16G23G18G07G08G09G01
  22018352.796     8300963.534  
  23302995.296      212403.808  
  21527140.121     1527595.505  
  23602376.222     5244369.578  
  24351064.638    56620338.142  
  21276490.580     4402845.938  
  21189976.489   -42696775.767  
  20505697.611   -61065263.649  
  23519114.467    -3293563.528  
  22747972.210   -60625734.320  
 18  6 25  2 47  5.0000000  0 10G27G30G11G16G23G18G07G08G09G01
  22020922.039     8314466.151  
  23299990.823      196611.447  
  21524565.639     1514063.126  
  23604431.908     5255180.864  
  24353753.649    56634468.052  
  21273929.549     4389384.359  
  21188024.886   -42707031.790  
  20506592.535   -61060557.845  
  23521328.842    -3281931.194  
  22744544.613   -60643735.791  
 18  6 25  2 47 10.0000000  0 10G27G30G11G16G23G18G07G08G09G01
  22023491.145     8327972.136  
  23296986.498      180825.216  
  21521993.309     1500541.312  
  23606492.036     5265994.787  
  24356442.379    56648596.333  
  21271368.809     4375934.706  
  21186076.436   -42717275.400  
  20507490.470   -61055842.869  
  23523539.932    -3270293.723  
  22741119.599   -60661731.824  
 18  6 25  2 47 15.0000000  0 10G27G30G11G16G23G18G07G08G09G01
  22026061.708     8341481.366  
  23293983.059      165044.964  
  21519421.292     1487029.812  
  23608549.472     5276811.200  
  24359127.559    56662722.721  
  21268813.104     4362496.802  
  21184128.872   -42727506.869  
  20508389.863   -61051119.069  
  23525755.055    -3258651.355  
  22737700.048   -60679722.529  
 18  6 25  2 47 20.0000000  0 10G27G30G11G16G23G18G07G08G09G01
  22028633.151     8354993.939  
  23290981.930      149270.845  
  21516853.158     1473528.865  
  23610610.362     5287630.258  
  24361818.484    56676847.471  
  21266258.851     4349070.867  
  21182184.191   -42737725.787  
  20509290.421   -61046386.218  
  23527971.200    -3247003.870  
  22734276.368   -60697707.776  
 18  6 25  2 47 25.0000000  0  9G27G30G11G23G18G07G08G09G01
  22031205.373     8368509.778  
  23287981.007      133502.845  
  21514284.946     1460038.343  
  24364504.750    56690970.439  
  21263704.948     4335656.806  
  21180242.006   -42747932.389  
  20510192.331   -61041644.485  
  23530193.992    -3235351.416  
  22730854.756   -60715687.638  
 18  6 25  2 47 30.0000000  0 10G27G30G11G16G23G18G07G08G09G01
  22033777.560     8382028.705  
  23284980.480      117740.730  
  21511718.989     1446558.095  
  23614775.308     5309196.498  
  24367193.271    56705091.475  
  21261155.733     4322254.417  
  21178301.504   -42758126.826  
  20511096.210   -61036893.907  
  23532414.173    -3223694.139  
  22727431.821   -60733662.282  
 18  6 25  2 47 35.0000000  0 10G27G30G11G16G23G18G07G08G09G01
  22036349.614     8395550.877  
  23281982.967      101984.705  
  21509155.903     1433088.231  
  23616830.657     5320022.576  
  24369878.797    56719210.718  
  21258607.814     4308863.990  
  21176364.158   -42768309.009  
  20512001.529   -61032134.400  
  23534633.219    -3212031.959  
  22724014.476   -60751631.513  
 18  6 25  2 47 40.0000000  0 10G27G30G11G16G23G18G07G08G09G01
  22038924.596     8409076.308  
  23278985.235       86234.811  
  21506595.173     1419628.824  
  23618889.077     5330851.730  
  24372565.677    56733328.100  
  21256061.108     4295485.352  
  21174429.885   -42778478.823  
  20512909.777   -61027365.913  
  23536854.192    -3200364.776  
  22720596.340   -60769595.323  
 18  6 25  2 47 45.0000000  0 10G27G30G11G16G23G18G07G08G09G01
  22041499.289     8422604.933  
  23275989.502       70491.010  
  21504035.585     1406179.921  
  23620945.634     5341683.519  
  24375253.556    56747443.609  
  21253515.685     4282118.742  
  21172496.896   -42788636.302  
  20513819.309   -61022588.557  
  23539076.020    -3188692.762  
  22717177.771   -60787553.629  
 18  6 25  2 47 50.0000000  0 10G27G30G11G16G23G18G07G08G09G01
  22044074.593     8436136.766  
  23272994.524       54753.331  
  21501479.183     1392741.505  
  23623001.801     5352517.866  
  24377937.753    56761557.303  
  21250974.452     4268764.030  
  21170566.092   -42798781.408  
  20514727.878   -61017802.265  
  23541298.460    -3177015.800  
  22713762.961   -60805506.507  
 18  6 25  2 47 55.0000000  0  9G27G30G11G23G18G07G08G09G01
  22046649.466     8449671.663  
  23270001.260       39021.661  
  21498924.067     1379313.349  
  24380623.235    56775668.898  
  21248435.791     4255420.993  
  21168636.860   -42808914.304  
  20515641.167   -61013007.378  
  23543521.755    -3165334.137  
  22710346.574   -60823454.136  
 18  6 25  2 48  0.0000000  0 10G27G30G11G16G23G18G07G08G09G01
  22049226.404     8463209.793  
  23267009.920       23296.130  
  21496369.014     1365895.752  
  23627118.628     5374248.880  
  24383308.065    56789778.673  
  21245899.912     4242090.006  
  21166710.553   -42819034.781  
  20516555.807   -61008203.503  
  23545745.113    -3153647.571  
  22706932.969   -60841396.194  
 18  6 25  2 48  5.0000000  0 10G27G30G11G16G23G18G07G08G09G01
  22051802.778     8476751.018  
  23264017.442        7576.751  
  21493819.692     1352488.597  
  23629183.877     5385090.670  
  24385993.189    56803886.400  
  21243365.901     4228770.941  
  21164788.260   -42829142.929  
  20517471.742   -61003390.799  
  23547969.481    -3141956.180  
  22703518.514   -60859332.840  
 18  6 25  2 48 10.0000000  0 10G27G30G11G16G23G18G07G08G09G01
  22054380.214     8490295.473  
  23261027.887       -8136.446  
  21491269.572     1339091.998  
  23631246.611     5395935.090  
  24388677.514    56817992.270  
  21240833.095     4215463.879  
  21162867.315   -42839238.578  
  20518389.455   -60998569.247  
  23550195.340    -3130259.932  
  22700107.982   -60877263.891  
 18  6 25  2 48 15.0000000  0 10G27G30G11G16G23G18G07G08G09G01
  22056958.648     8503843.081  
  23258040.188      -23843.483  
  21488723.169     1325705.870  
  23633313.921     5406782.029  
  24391362.695    56832096.140  
  21238302.718     4202168.773  
  21160948.370   -42849321.823  
  20519308.452   -60993738.885  
  23552421.625    -3118558.886  
  22696696.445   -60895189.510  
 18  6 25  2 48 20.0000000  0 10G27G30G11G16G23G18G07G08G09G01
  22059534.445     8517393.810  
  23255052.714      -39544.383  
  21486178.564     1312330.211  
  23635372.441     5417631.580  
  24394043.951    56846198.093  
  21235774.856     4188885.654  
  21159031.796   -42859392.696  
  20520229.963   -60988899.641  
  23554648.278    -3106853.080  
  22693285.419   -60913109.559  
 18  6 25  2 48 25.0000000  0 10G27G30G11G16G23G18G07G08G09G01
  22062115.718     8530947.857  
  23252065.851      -55238.912  
  21483633.856     1298965.209  
  23637434.433     5428483.834  
  24396727.105    56860298.236  
  21233249.894     4175614.618  
  21157117.693   -42869450.936  
  20521151.370   -60984051.405  
  23556877.545    -3095142.317  
  22689877.151   -60931023.904  
 18  6 25  2 48 30.0000000  0 10G27G30G11G16G23G18G07G08G09G01
  22064697.054     8544505.057  
  23249077.334      -70927.150  
  21481092.787     1285610.799  
  23639495.344     5439338.645  
  24399409.464    56874396.479  
  21230726.568     4162355.686  
  21155206.086   -42879496.701  
  20522075.701   -60979194.244  
  23559105.587    -3083426.718  
  22686467.228   -60948932.676  
 18  6 25  2 48 35.0000000  0 10G27G30G11G16G23G18G07G08G09G01
  22067276.743     8558065.373  
  23246094.467      -86609.162  
  21478554.793     1272266.896  
  23641560.474     5450196.040  
  24402093.037    56888492.714  
  21228205.888     4149108.809  
  21153296.695   -42889529.993  
  20523001.391   -60974328.352  
  23561335.272    -3071706.402  
  22683062.669   -60966835.850  
 18  6 25  2 48 40.0000000  0 10G27G30G11G16G23G18G07G08G09G01
  22069856.996     8571628.829  
  23243110.735     -102284.922  
  21476016.935     1258933.555  
  23643623.593     5461055.938  
  24404774.171    56902587.014  
  21225687.491     4135873.994  
  21151390.444   -42899550.790  
  20523929.648   -60969453.575  
  23563564.235    -3059981.351  
  22679655.670   -60984733.437  
 18  6 25  2 48 45.0000000  0 10G27G30G11G16G23G18G07G08G09G01
  22072438.310     8585195.363  
  23240131.067     -117954.490  
  21473480.995     1245610.761  
  23645695.070     5471918.500  
  24407455.649    56916679.259  
  21223171.154     4122651.190  
  21149485.111   -42909559.099  
  20524858.107   -60964570.052  
  23565797.549    -3048251.538  
  22676252.021   -61002625.445  
 18  6 25  2 48 50.0000000  0 10G27G30G11G16G23G18G07G08G09G01
  22075019.941     8598764.930  
  23237151.001     -133617.837  
  21470947.376     1232298.525  
  23647760.998     5482783.487  
  24410136.442    56930769.456  
  21220657.282     4109440.472  
  21147583.242   -42919554.955  
  20525789.745   -60959677.850  
  23568028.319    -3036517.082  
  22672849.119   -61020511.866  
 18  6 25  2 48 55.0000000  0 10G27G30G11G16G23G18G07G08G09G01
  22077604.230     8612337.727  
  23234170.302     -149274.807  
  21468417.273     1218996.940  
  23649825.148     5493651.272  
  24412818.892    56944857.723  
  21218145.209     4096241.882  
  21145682.458   -42929538.151  
  20526721.894   -60954776.648  
  23570262.176    -3024777.758  
  22669447.014   -61038392.561  
 18  6 25  2 49  0.0000000  0  9G27G30G11G23G18G07G08G09G01
  22080186.684     8625913.625  
  23231193.635     -164925.457  
  21465887.339     1205706.026  
  24415499.794    56958943.912  
  21215635.737     4083055.429  
  21143785.849   -42939508.792  
  20527657.360   -60949866.650  
  23572499.921    -3013033.773  
  22666043.504   -61056267.558  
 18  6 25  2 49  5.0000000  0  9G27G30G11G23G18G07G08G09G01
  22082772.817     8639492.591  
  23228215.209     -180569.790  
  21463359.939     1192425.719  
  24418178.364    56973028.102  
  21213129.086     4069881.104  
  21141891.774   -42949466.902  
  20528592.213   -60944947.866  
  23574737.196    -3001285.032  
  22662643.959   -61074136.868  
 18  6 25  2 49 10.0000000  0  9G27G30G11G23G18G07G08G09G01
  22085355.999     8653074.603  
  23225237.268     -196207.905  
  21460835.456     1179155.947  
  24420858.563    56987110.115  
  21210624.921     4056718.853  
  21139997.753   -42959412.565  
  20529530.124   -60940020.424  
  23576973.810    -2989531.682  
  22659244.754   -61092000.589  
 18  6 25  2 49 15.0000000  0  9G27G30G11G23G18G07G08G09G01
  22087940.355     8666659.553  
  23222260.785     -211839.646  
  21458314.148     1165896.752  
  24423538.504    57001190.007  
  21208122.502     4043568.685  
  21138107.625   -42969345.704  
  20530469.924   -60935084.286  
  23579211.168    -2977773.751  
  22655845.292   -61109858.649  
 18  6 25  2 49 20.0000000  0  9G27G30G11G23G18G07G08G09G01
  22090527.836     8680247.715  
  23219287.141     -227464.972  
  21455792.389     1152648.381  
  24426215.990    57015267.957  
  21205623.065     4030430.852  
  21136220.335   -42979266.141  
  20531410.847   -60930139.293  
  23581448.646    -2966011.103  
  22652449.384   -61127710.850  
 18  6 25  2 49 25.0000000  0  9G27G30G11G23G18G07G08G09G01
  22093112.603     8693838.801  
  23216315.506     -243083.988  
  21453272.495     1139410.542  
  24428893.481    57029343.676  
  21203124.349     4017305.021  
  21134335.340   -42989174.071  
  20532353.634   -60925185.668  
  23583686.415    -2954243.879  
  22649052.050   -61145557.433  
 18  6 25  2 49 30.0000000  0  9G27G30G11G23G18G07G08G09G01
  22095700.785     8707433.068  
  23213347.429     -258696.551  
  21450755.014     1126183.504  
  24431573.384    57043417.378  
  21200630.048     4004191.616  
  21132452.328   -42999069.264  
  20533297.117   -60920223.123  
  23585929.459    -2942471.920  
  22645656.700   -61163398.148  
 18  6 25  2 49 35.0000000  0  9G27G30G11G23G18G07G08G09G01
  22098288.131     8721030.341  
  23210378.086     -274302.795  
  21448239.559     1112967.112  
  24434248.875    57057488.907  
  21198135.771     3991090.312  
  21130571.772   -43008951.880  
  20534244.630   -60915251.892  
  23588171.382    -2930695.336  
  22642263.376   -61181233.116  
 18  6 25  2 49 40.0000000  0  9G27G30G11G23G18G07G08G09G01
  22100875.817     8734630.491  
  23207409.513     -289902.804  
  21445727.449     1099761.271  
  24436928.998    57071558.170  
  21195645.984     3978001.145  
  21128692.844   -43018822.001  
  20535191.052   -60910272.131  
  23590413.930    -2918914.347  
  22638870.965   -61199062.461  
 18  6 25  2 49 45.0000000  0  9G27G30G11G23G18G07G08G09G01
  22103463.576     8748233.678  
  23204441.584     -305496.319  
  21443215.555     1086566.109  
  24439606.475    57085625.372  
  21193157.127     3964924.156  
  21126816.850   -43028679.498  
  20536139.978   -60905283.569  
  23592658.554    -2907128.708  
  22635477.767   -61216885.995  
 18  6 25  2 49 50.0000000  0  9G27G30G11G23G18G07G08G09G01
  22106053.984     8761839.877  
  23201476.163     -321083.431  
  21440706.740     1073381.650  
  24442282.882    57099690.416  
  21190670.777     3951859.525  
  21124944.794   -43038524.286  
  20537090.697   -60900286.296  
  23594900.105    -2895338.544  
  22632088.794   -61234703.663  
 18  6 25  2 49 55.0000000  0  9G27G30G11G23G18G07G08G09G01
  22108641.011     8775449.098  
  23198510.221     -336664.038  
  21438201.411     1060207.946  
  24444957.767    57113753.312  
  21188187.055     3938807.214  
  21123072.217   -43048356.396  
  20538043.184   -60895280.261  
  23597145.141    -2883543.726  
  22628697.869   -61252515.478  
 18  6 25  2 50  0.0000000  0  9G27G30G11G23G18G07G08G09G01
  22111233.365     8789061.242  
  23195546.316     -352238.301  
  21435695.114     1047044.872  
  24447632.543    57127813.894  
  21185706.228     3925767.026  
  21121204.397   -43058175.863  
  20538998.424   -60890265.655  
  23599389.210    -2871744.480  
  22625310.269   -61270321.568  
 18  6 25  2 50  5.0000000  0  9G27G30G11G23G18G07G08G09G01
  22113824.522     8802676.364  
  23192582.502     -367806.074  
  21433192.628     1033892.524  
  24450309.984    57141872.309  
  21183226.923     3912739.176  
  21119337.668   -43067982.672  
  20539953.897   -60885242.352  
  23601634.943    -2859940.663  
  22621922.902   -61288121.746  
 18  6 25  2 50 10.0000000  0  9G27G30G11G23G18G07G08G09G01
  22116415.877     8816294.552  
  23189623.035     -383367.286  
  21430691.198     1020750.998  
  24452986.193    57155928.627  
  21180749.104     3899723.642  
  21117476.432   -43077776.694  
  20540912.288   -60880210.271  
  23603881.304    -2848132.369  
  22618532.157   -61305915.995  
 18  6 25  2 50 15.0000000  0  9G27G30G11G23G18G07G08G09G01
  22119007.652     8829915.792  
  23186661.699     -398921.893  
  21428192.764     1007620.300  
  24455658.958    57169982.793  
  21178274.996     3886720.517  
  21115614.042   -43087557.867  
  20541871.527   -60875169.348  
  23606128.370    -2836319.414  
  22615150.846   -61323704.306  
 18  6 25  2 50 20.0000000  0  9G27G30G11G23G18G07G08G09G01
  22121599.451     8843539.894  
  23183703.534     -414470.181  
  21425696.214      994500.274  
  24458334.179    57184034.558  
  21175802.628     3873729.710  
  21113753.821   -43097326.423  
  20542832.793   -60870119.912  
  23608378.751    -2824502.088  
  22611768.699   -61341486.784  
 18  6 25  2 50 25.0000000  0  9G27G30G11G23G18G07G08G09G01
  22124192.802     8857166.979  
  23180746.349     -430011.874  
  21423201.932      981391.122  
  24461007.518    57198084.161  
  21173335.104     3860751.290  
  21111898.015   -43107082.151  
  20543794.896   -60865061.774  
  23610626.679    -2812680.207  
  22608384.958   -61359263.281  
 18  6 25  2 50 30.0000000  0  9G27G30G11G23G18G07G08G09G01
  22126787.909     8870797.015  
  23177790.349     -445547.001  
  21420708.977      968292.710  
  24463682.185    57212131.457  
  21170866.331     3847785.211  
  21110043.536   -43116825.232  
  20544759.042   -60859995.084  
  23612875.647    -2800853.922  
  22605002.114   -61377033.857  
 18  6 25  2 50 35.0000000  0  9G27G30G11G23G18G07G08G09G01
  22129381.242     8884429.825  
  23174835.435     -461075.828  
  21418220.113      955204.947  
  24466353.502    57226176.390  
  21168401.364     3834831.399  
  21108192.290   -43126555.678  
  20545724.274   -60854919.866  
  23615128.706    -2789023.354  
  22601622.789   -61394798.662  
 18  6 25  2 50 40.0000000  0  9G27G30G11G23G18G07G08G09G01
  22131977.840     8898065.854  
  23171881.641     -476597.790  
  21415730.223      942128.283  
  24469025.510    57240219.309  
  21165937.803     3821890.196  
  21106343.309   -43136273.042  
  20546692.057   -60849835.682  
  23617377.305    -2777188.080  
  22598244.442   -61412557.219  
 18  6 25  2 50 45.0000000  0  8G27G30G11G18G07G08G09G01
  22134570.946     8911704.762  
  23168927.646     -492113.172  
  21413244.425      929062.343  
  21163478.334     3808961.345  
  21104496.416   -43145977.719  
  20547660.927   -60844742.922  
  23619630.425    -2765348.278  
  22594866.322   -61430309.801  
 18  6 25  2 50 50.0000000  0  8G27G30G11G18G07G08G09G01
  22137167.446     8925346.622  
  23165974.468     -507621.971  
  21410760.017      916007.306  
  21161019.968     3796045.004  
  21102651.056   -43155669.481  
  20548631.473   -60839641.505  
  23621884.363    -2753504.164  
  22591489.163   -61448056.353  
 18  6 25  2 50 55.0000000  0  8G27G30G11G18G07G08G09G01
  22139762.684     8938991.084  
  23163026.754     -523124.469  
  21408276.207      902962.752  
  21158564.920     3783140.741  
  21100810.158   -43165348.801  
  20549604.335   -60834531.746  
  23624138.183    -2741655.981  
  22588113.318   -61465797.156  
 18  6 25  2 51  0.0000000  0  9G27G30G11G28G18G07G08G09G01
  22142360.619     8952638.377  
  23160077.159     -538620.461  
  21405797.240      889929.042  
  24993576.485    25842671.843  
  21156112.282     3770248.862  
  21098970.240   -43175015.330  
  20550578.319   -60829413.470  
  23626397.563    -2729803.449  
  22584738.453   -61483532.033  
 18  6 25  2 51  5.0000000  0  9G27G30G11G28G18G07G08G09G01
  22144957.908     8966288.736  
  23157129.779     -554109.503  
  21403318.629      876906.359  
  24991597.122    25832286.251  
  21153661.002     3757369.624  
  21097134.541   -43184668.842  
  20551554.806   -60824286.406  
  23628653.864    -2717946.252  
  22581364.087   -61501260.678  
 18  6 25  2 51 10.0000000  0  9G27G30G11G28G18G07G08G09G01
  22147555.695     8979941.583  
  23154184.758     -569592.473  
  21400842.521      863894.184  
  24989619.832    25821898.213  
  21151211.937     3744502.470  
  21095299.484   -43194309.876  
  20552531.362   -60819151.220  
  23630914.384    -2706085.140  
  22577989.933   -61518983.664  
 18  6 25  2 51 15.0000000  0  9G27G30G11G28G18G07G08G09G01
  22150155.891     8993597.396  
  23151239.998     -585068.633  
  21398368.533      850892.904  
  24987644.377    25811508.783  
  21148766.282     3731647.941  
  21093467.121   -43203937.944  
  20553509.468   -60814007.292  
  23633169.585    -2694219.645  
  22574618.617   -61536700.445  
 18  6 25  2 51 20.0000000  0  9G27G30G11G28G18G07G08G09G01
  22152755.864     9007256.160  
  23148298.880     -600538.067  
  21395896.613      837902.624  
  24985667.269    25801117.812  
  21146322.838     3718805.954  
  21091636.396   -43213553.077  
  20554489.927   -60808854.687  
  23635433.292    -2682349.753  
  22571249.797   -61554411.124  
 18  6 25  2 51 25.0000000  0  9G27G30G11G28G18G07G08G09G01
  22155354.534     9020917.703  
  23145355.027     -616000.937  
  21393426.538      824923.135  
  24983689.001    25790725.260  
  21143880.523     3705976.418  
  21089809.520   -43223155.412  
  20555473.089   -60803693.540  
  23637690.831    -2670475.512  
  22567880.389   -61572115.705  
 18  6 25  2 51 30.0000000  0  9G27G30G11G28G18G07G08G09G01
  22157955.252     9034582.090  
  23142413.938     -631457.080  
  21390958.655      811954.524  
  24981712.065    25780331.206  
  21141441.830     3693159.405  
  21087984.548   -43232744.868  
  20556455.724   -60798523.847  
  23639951.706    -2658597.022  
  22564512.886   -61589814.214  
 18  6 25  2 51 35.0000000  0  9G27G30G11G28G18G07G08G09G01
  22160556.228     9048249.143  
  23139471.962     -646906.705  
  21388493.318      798996.653  
  24979731.095    25769935.359  
  21139005.540     3680354.833  
  21086162.552   -43242321.594  
  20557442.479   -60793345.838  
  23642214.984    -2646714.451  
  22561146.499   -61607506.760  
 18  6 25  2 51 40.0000000  0  9G27G30G11G28G18G07G08G09G01
  22163156.890     9061919.174  
  23136533.536     -662349.459  
  21386029.813      786049.876  
  24977751.813    25759538.108  
  21136570.654     3667562.982  
  21084342.818   -43251885.282  
  20558428.778   -60788159.185  
  23644475.373    -2634827.410  
  22557780.085   -61625193.008  
 18  6 25  2 51 45.0000000  0  9G27G30G11G28G18G07G08G09G01
  22165758.808     9075592.097  
  23133598.655     -677785.495  
  21383567.851      773114.107  
  24975775.219    25749139.385  
  21134139.743     3654783.668  
  21082525.485   -43261435.908  
  20559416.905   -60782963.839  
  23646738.450    -2622936.106  
  22554415.785   -61642873.009  
 18  6 25  2 51 50.0000000  0  9G27G30G11G28G18G07G08G09G01
  22168361.519     9089267.684  
  23130661.562     -693214.941  
  21381107.398      760189.059  
  24973796.842    25738738.964  
  21131710.341     3642016.917  
  21080710.090   -43270973.794  
  20560407.400   -60777760.077  
  23649001.461    -2611040.615  
  22551052.994   -61660547.002  
 18  6 25  2 51 55.0000000  0  9G27G30G11G28G18G07G08G09G01
  22170963.053     9102945.985  
  23127726.870     -708637.666  
  21378651.491      747274.869  
  24971810.992    25728336.937  
  21129284.197     3629262.576  
  21078898.240   -43280498.890  
  20561399.293   -60772547.973  
  23651267.301    -2599141.063  
  22547691.315   -61678214.828  
 18  6 25  2 52  0.0000000  0  9G27G30G11G28G18G07G08G09G01
  22173567.447     9116627.193  
  23124793.177     -724053.567  
  21376194.008      734371.773  
  24969829.577    25717933.365  
  21126858.338     3616520.930  
  21077088.964   -43290010.883  
  20562391.900   -60767327.167  
  23653529.562    -2587237.132  
  22544329.778   -61695876.421  
 18  6 25  2 52  5.0000000  0  9G27G30G11G28G18G07G08G09G01
  22176172.665     9130311.122  
  23121860.594     -739462.801  
  21373743.073      721479.575  
  24967850.415    25707528.216  
  21124435.734     3603791.834  
  21075280.511   -43299509.951  
  20563387.762   -60762097.943  
  23655794.364    -2575329.163  
  22540968.921   -61713531.844  
 18  6 25  2 52 10.0000000  0  9G27G30G11G28G18G07G08G09G01
  22178776.943     9143998.186  
  23118929.219     -754864.824  
  21371292.057      708598.734  
  24965869.027    25697121.939  
  21122016.198     3591075.838  
  21073474.839   -43308995.623  
  20564384.546   -60756859.840  
  23658060.230    -2563416.533  
  22537612.276   -61731180.610  
 18  6 25  2 52 15.0000000  0  9G27G30G11G28G18G07G08G09G01
  22181381.296     9157688.723  
  23115997.632     -770259.348  
  21368842.689      695729.599  
  24963891.147    25686714.728  
  21119599.027     3578373.021  
  21071673.822   -43318467.599  
  20565383.694   -60751612.606  
  23660328.604    -2551499.062  
  22534254.704   -61748822.477  
 18  6 25  2 52 20.0000000  0  9G27G30G11G28G18G07G08G09G01
  22183987.954     9171381.280  
  23113069.780     -785647.862  
  21366395.913      682870.645  
  24961910.851    25676305.154  
  21117183.158     3565682.238  
  21069872.962   -43327927.370  
  20566382.285   -60746357.663  
  23662596.992    -2539578.184  
  22530899.008   -61766458.804  
 18  6 25  2 52 25.0000000  0  9G27G30G11G28G18G07G08G09G01
  22186593.394     9185076.386  
  23110144.288     -801029.689  
  21363950.637      670022.487  
  24959934.487    25665893.844  
  21114772.081     3553003.933  
  21068074.462   -43337374.325  
  20567384.666   -60741094.391  
  23664866.023    -2527653.371  
  22527543.668   -61784089.032  
 18  6 25  2 52 30.0000000  0  9G27G30G11G28G18G07G08G09G01
  22189201.234     9198774.000  
  23107218.907     -816405.011  
  21361507.190      657185.065  
  24957954.085    25655480.736  
  21112362.117     3540337.998  
  21066279.221   -43346808.531  
  20568386.872   -60735822.909  
  23667135.451    -2515724.635  
  22524189.440   -61801713.279  
 18  6 25  2 52 35.0000000  0  9G27G30G11G28G18G07G08G09G01
  22191807.330     9212474.465  
  23104294.071     -831773.340  
  21359066.434      644358.808  
  24955970.794    25645066.144  
  21109953.271     3527684.925  
  21064488.102   -43356229.513  
  20569393.200   -60730542.830  
  23669406.855    -2503791.681  
  22520837.761   -61819331.011  
 18  6 25  2 52 40.0000000  0  9G27G30G11G28G18G07G08G09G01
  22194414.004     9226177.427  
  23101371.816     -847135.027  
  21356627.829      631543.373  
  24953986.363    25634649.786  
  21107548.150     3515044.298  
  21062695.844   -43365637.727  
  20570399.820   -60725254.626  
  23671680.983    -2491854.803  
  22517485.228   -61836942.684  
 18  6 25  2 52 45.0000000  0  9G27G30G11G28G18G07G08G09G01
  22197023.105     9239883.192  
  23098447.838     -862489.738  
  21354190.793      618739.060  
  24952002.785    25624231.883  
  21105144.311     3502416.531  
  21060909.304   -43375032.760  
  20571406.863   -60719957.843  
  23673951.671    -2479913.756  
  22514134.693   -61854547.942  
 18  6 25  2 52 50.0000000  0  9G27G30G11G28G18G07G08G09G01
  22199630.620     9253591.634  
  23095527.569     -877837.656  
  21351756.035      605945.668  
  24950017.909    25613812.378  
  21102745.040     3489801.414  
  21059122.609   -43384414.777  
  20572416.042   -60714652.697  
  23676225.926    -2467968.757  
  22510787.439   -61872146.903  
 18  6 25  2 52 55.0000000  0  9G27G30G11G28G18G07G08G09G01
  22202240.294     9267302.803  
  23092608.887     -893178.611  
  21349325.153      593163.419  
  24948037.480    25603391.330  
  21100344.494     3477199.142  
  21057340.077   -43393783.658  
  20573427.665   -60709338.981  
  23678499.047    -2456019.581  
  22507438.479   -61889739.413  
 18  6 25  2 53  0.0000000  0  9G27G30G11G28G18G07G08G09G01
  22204849.133     9281016.696  
  23089691.373     -908512.680  
  21346894.295      580392.292  
  24946059.507    25592968.796  
  21097951.125     3464609.599  
  21055560.143   -43403139.420  
  20574440.600   -60704016.857  
  23680774.482    -2444066.398  
  22504093.835   -61907325.585  
 18  6 25  2 53  5.0000000  0  9G27G30G11G28G18G07G08G09G01
  22207460.534     9294733.139  
  23086775.419     -923839.975  
  21344466.428      567632.014  
  24944078.660    25582544.582  
  21095557.028     3452032.707  
  21053782.343   -43412482.243  
  20575454.953   -60698686.535  
  23683044.752    -2432109.313  
  22500746.603   -61924905.419  
 18  6 25  2 53 10.0000000  0  9G27G30G11G28G18G07G08G09G01
  22210071.365     9308452.217  
  23083859.897     -939160.321  
  21342038.706      554882.865  
  24942090.945    25572118.689  
  21093165.795     3439468.620  
  21052008.122   -43421811.921  
  20576470.165   -60693347.886  
  23685317.457    -2420148.257  
  22497401.805   -61942478.892  
 18  6 25  2 53 15.0000000  0  9G27G30G11G28G18G07G08G09G01
  22212681.658     9322174.010  
  23080945.697     -954473.752  
  21339615.311      542144.794  
  24940106.843    25561691.320  
  21090777.314     3426917.331  
  21050234.365   -43431128.453  
  20577488.847   -60688000.728  
  23687594.346    -2408183.100  
  22494062.049   -61960045.916  
 18  6 25  2 53 20.0000000  0  9G27G30G11G28G18G07G08G09G01
  22215293.376     9335898.498  
  23078033.066     -969780.188  
  21337194.201      529417.901  
  24938120.016    25551262.342  
  21088391.833     3414378.787  
  21048464.465   -43440431.812  
  20578506.807   -60682645.231  
  23689874.234    -2396214.001  
  22490718.997   -61977606.468  
 18  6 25  2 53 25.0000000  0  9G27G30G11G28G18G07G08G09G01
  22217906.253     9349625.379  
  23075120.018     -985079.900  
  21334775.250      516701.848  
  24936136.780    25540831.564  
  21086007.654     3401852.880  
  21046695.008   -43449722.309  
  20579526.785   -60677281.617  
  23692153.563    -2384241.071  
  22487377.533   -61995160.824  
 18  6 25  2 53 30.0000000  0  9G27G30G11G28G18G07G08G09G01
  22220519.156     9363355.072  
  23072210.861    -1000372.442  
  21332357.184      503997.067  
  24934147.847    25530399.301  
  21083626.220     3389340.062  
  21044929.728   -43458999.470  
  20580549.507   -60671909.430  
  23694435.208    -2372264.108  
  22484040.244   -62012708.533  
 18  6 25  2 53 35.0000000  0  9G27G30G11G28G18G07G08G09G01
  22223131.556     9377087.300  
  23069302.631    -1015658.118  
  21329941.333      491303.292  
  24932163.991    25519965.358  
  21081248.145     3376839.898  
  21043167.808   -43468263.546  
  20581574.016   -60666529.028  
  23696717.924    -2360283.206  
  22480700.306   -62030249.860  
 18  6 25  2 53 40.0000000  0  9G27G30G11G28G18G07G08G09G01
  22225745.226     9390822.133  
  23066393.525    -1030936.770  
  21327528.900      478620.706  
  24930182.550    25509529.868  
  21078871.771     3364352.613  
  21041407.730   -43477514.460  
  20582598.650   -60661140.295  
  23698998.620    -2348298.417  
  22477364.644   -62047784.694  
 18  6 25  2 53 45.0000000  0  9G27G30G11G28G18G07G08G09G01
  22228359.534     9404559.594  
  23063487.919    -1046208.483  
  21325117.247      465949.249  
  24928197.168    25499092.819  
  21076498.753     3351878.175  
  21039649.864   -43486752.208  
  20583626.498   -60655743.134  
  23701280.525    -2336309.605  
  22474028.760   -62065312.988  
 18  6 25  2 53 50.0000000  0  9G27G30G11G28G18G07G08G09G01
  22230974.851     9418299.612  
  23060583.752    -1061473.177  
  21322707.892      453288.865  
  24926208.503    25488654.066  
  21074127.031     3339416.640  
  21037892.436   -43495976.764  
  20584654.926   -60650337.706  
  23703563.154    -2324317.042  
  22470694.458   -62082834.838  
 18  6 25  2 53 55.0000000  0  9G27G30G11G28G18G07G08G09G01
  22233588.642     9432042.254  
  23057679.489    -1076730.822  
  21320299.585      440639.653  
  24924219.027    25478213.847  
  21071758.504     3326967.972  
  21036140.778   -43505188.144  
  20585685.262   -60644923.975  
  23705846.831    -2312320.589  
  22467362.208   -62100350.141  
 18  6 25  2 54  0.0000000  0  9G27G30G11G28G18G07G08G09G01
  22236206.181     9445787.338  
  23054779.404    -1091981.502  
  21317895.313      428001.498  
  24922229.006    25467771.863  
  21069391.006     3314532.128  
  21034390.579   -43514386.371  
  20586716.627   -60639502.023  
  23708129.964    -2300320.254  
  22464028.697   -62117858.969  
 18  6 25  2 54  5.0000000  0  9G27G30G11G28G18G07G08G09G01
  22238821.176     9459534.954  
  23051876.774    -1107225.233  
  21315492.218      415374.411  
  24920237.013    25457328.162  
  21067026.832     3302109.121  
  21032642.559   -43523571.484  
  20587750.027   -60634071.921  
  23710411.698    -2288316.238  
  22460699.510   -62135361.361  
 18  6 25  2 54 10.0000000  0  9G27G30G11G28G18G07G08G09G01
  22241437.109     9473285.241  
  23048978.946    -1122461.802  
  21313092.206      402758.628  
  24918246.675    25446882.991  
  21064665.456     3289699.172  
  21030897.479   -43532743.221  
  20588785.796   -60628633.398  
  23712697.948    -2276308.236  
  22457370.976   -62152857.020  
 18  6 25  2 54 15.0000000  0 10G27G30G11G23G28G18G07G08G09G01
  22244054.077     9487038.023  
  23046081.151    -1137691.334  
  21310693.945      390153.982  
  24583489.951    16396381.496  
  24916255.224    25436436.163  
  21062306.402     3277302.088  
  21029154.150   -43541901.747  
  20589819.594   -60623186.640  
  23714984.087    -2264296.469  
  22454041.186   -62170346.170  
 18  6 25  2 54 20.0000000  0 10G27G30G11G23G28G18G07G08G09G01
  22246672.253     9500793.402  
  23043184.279    -1152913.734  
  21308295.891      377560.562  
  24586141.897    16410311.190  
  24914263.694    25425987.791  
  21059949.272     3264918.063  
  21027414.748   -43551047.033  
  20590859.610   -60617731.563  
  23717268.430    -2252280.832  
  22450715.324   -62187828.638  
 18  6 25  2 54 25.0000000  0 10G27G30G11G23G28G18G07G08G09G01
  22249289.752     9514551.290  
  23040287.587    -1168129.091  
  21305903.312      364978.302  
  24588790.876    16424238.046  
  24912278.212    25415537.728  
  21057594.899     3252546.889  
  21025676.671   -43560179.050  
  20591899.377   -60612268.274  
  23719554.957    -2240261.449  
  22447388.784   -62205304.570  
 18  6 25  2 54 30.0000000  0  9G27G30G11G23G18G07G08G09G01
  22251908.442     9528311.792  
  23037394.233    -1183337.191  
  21303511.353      352407.454  
  24591440.188    16438162.205  
  21055243.434     3240188.912  
  21023940.216   -43569297.603  
  20592939.763   -60606796.487  
  23721844.106    -2228238.082  
  22444064.437   -62222773.694  
 18  6 25  2 54 35.0000000  0  9G27G30G11G23G18G07G08G09G01
  22254528.050     9542074.724  
  23034499.651    -1198538.271  
  21301120.311      339847.603  
  24594090.132    16452083.354  
  21052894.462     3227843.736  
  21022208.256   -43578403.061  
  20593983.500   -60601316.662  
  23724133.172    -2216211.172  
  22440740.437   -62240236.301  
 18  6 25  2 54 40.0000000  0  9G27G30G11G23G18G07G08G09G01
  22257147.575     9555840.322  
  23031609.135    -1213732.064  
  21298730.903      327299.186  
  24596738.274    16466001.850  
  21050548.124     3215511.743  
  21020477.786   -43587495.036  
  20595028.155   -60595828.394  
  23726423.013    -2204180.302  
  22437420.215   -62257692.111  
 18  6 25  2 54 45.0000000  0  9G27G30G11G23G18G07G08G09G01
  22259767.592     9569608.190  
  23028720.113    -1228918.972  
  21296346.710      314761.833  
  24599384.907    16479917.153  
  21048203.567     3203192.510  
  21018751.529   -43596573.916  
  20596074.161   -60590332.200  
  23728712.345    -2192145.954  
  22434099.915   -62275141.486  
 18  6 25  2 54 50.0000000  0  9G27G30G11G23G18G07G08G09G01
  22262387.075     9583378.539  
  23025832.560    -1244098.712  
  21293963.413      302235.704  
  24602032.865    16493829.655  
  21045862.768     3190886.345  
  21017025.883   -43605639.518  
  20597121.493   -60584827.841  
  23731001.285    -2180107.931  
  22430781.083   -62292584.116  
 18  6 25  2 54 55.0000000  0  9G27G30G11G23G18G07G08G09G01
  22265008.913     9597151.317  
  23022944.787    -1259271.352  
  21291581.756      289720.754  
  24604679.744    16507739.108  
  21043522.894     3178593.146  
  21015303.164   -43614691.818  
  20598170.179   -60579315.272  
  23733291.580    -2168066.194  
  22427462.746   -62310020.168  
 18  6 25  2 55  0.0000000  0  9G27G30G11G23G18G07G08G09G01
  22267629.463     9610926.681  
  23020058.159    -1274436.678  
  21289201.386      277217.222  
  24607325.336    16521645.791  
  21041185.882     3166313.111  
  21013582.448   -43623730.689  
  20599220.724   -60573794.267  
  23735582.732    -2156021.624  
  22424146.413   -62327449.374  
 18  6 25  2 55  5.0000000  0  9G27G30G11G23G18G07G08G09G01
  22270251.058     9624704.485  
  23017173.577    -1289594.870  
  21286825.067      264724.868  
  24609971.972    16535549.486  
  21038851.631     3154046.087  
  21011865.925   -43632756.249  
  20600272.315   -60568265.225  
  23737876.074    -2143972.414  
  22420830.551   -62344871.888  
 18  6 25  2 55 10.0000000  0 10G27G30G11G23G28G18G07G08G09G01
  22272873.891     9638484.747  
  23014290.089    -1304745.786  
  21284449.126      252243.765  
  24612616.555    16549450.279  
  24894397.317    23974879.139  
  21036520.765     3141792.232  
  21010151.213   -43641768.436  
  20601326.145   -60562727.966  
  23740168.365    -2131919.587  
  22417516.357   -62362287.605  
 18  6 25  2 55 15.0000000  0  9G27G30G11G23G18G07G08G09G01
  22275497.950     9652267.382  
  23011406.397    -1319889.579  
  21282076.987      239773.843  
  24615261.791    16563347.955  
  21034190.265     3129551.245  
  21008437.154   -43650767.372  
  20602381.486   -60557182.653  
  23742465.029    -2119863.112  
  22414201.242   -62379696.719  
 18  6 25  2 55 20.0000000  0  9G27G30G11G23G18G07G08G09G01
  22278120.684     9666052.506  
  23008528.535    -1335026.140  
  21279706.243      227315.271  
  24617905.560    16577242.713  
  21031865.025     3117323.496  
  21006727.494   -43659752.842  
  20603439.225   -60551629.078  
  23744760.799    -2107803.007  
  22410891.243   -62397098.981  
 18  6 25  2 55 25.0000000  0  9G27G30G11G23G18G07G08G09G01
  22280743.815     9679840.151  
  23005651.212    -1350155.411  
  21277337.326      214868.057  
  24620548.581    16591134.649  
  21029539.178     3105108.906  
  21005020.378   -43668724.846  
  20604497.360   -60546067.306  
  23747055.391    -2095739.176  
  22407581.354   -62414494.333  
 18  6 25  2 55 30.0000000  0  9G27G30G11G23G18G07G08G09G01
  22283369.736     9693630.004  
  23002773.388    -1365277.604  
  21274970.626      202431.972  
  24623191.815    16605023.381  
  21027218.268     3092907.268  
  21003317.338   -43677683.656  
  20605556.852   -60540497.662  
  23749353.487    -2083671.923  
  22404271.964   -62431883.146  
 18  6 25  2 55 35.0000000  0  9G27G30G11G23G18G07G08G09G01
  22285992.293     9707422.287  
  22999897.208    -1380392.515  
  21272607.002      190007.160  
  24625834.119    16618909.124  
  21024897.714     3080718.746  
  21001613.654   -43686629.071  
  20606618.563   -60534919.883  
  23751650.224    -2071601.092  
  22400964.505   -62449265.086  
 18  6 25  2 55 40.0000000  0  9G27G30G11G23G18G07G08G09G01
  22288618.000     9721216.954  
  22997020.030    -1395500.140  
  21270245.098      177593.688  
  24628476.568    16632791.845  
  21022580.025     3068543.403  
  20999914.551   -43695561.083  
  20607681.277   -60529333.921  
  23753947.822    -2059526.699  
  22397656.907   -62466640.225  
 18  6 25  2 55 45.0000000  0 10G27G30G11G23G28G18G07G08G09G01
  22291243.133     9735014.079  
  22994145.997    -1410600.408  
  21267885.051      165191.601  
  24631117.727    16646671.597  
  24880451.537    12403967.126  
  21020267.199     3056381.198  
  20998217.163   -43704479.590  
  20608745.134   -60523739.787  
  23756246.132    -2047448.654  
  22394352.310   -62484008.527  
 18  6 25  2 55 50.0000000  0  9G27G30G11G23G18G07G08G09G01
  22293868.767     9748813.581  
  22991273.753    -1425693.419  
  21265525.076      152800.833  
  24633758.672    16660548.267  
  21017954.874     3044232.234  
  20996522.422   -43713384.687  
  20609811.924   -60518137.570  
  23758545.517    -2035367.094  
  22391047.928   -62501369.883  
 18  6 25  2 55 55.0000000  0  9G27G30G11G23G18G07G08G09G01
  22296494.979     9762615.503  
  22988404.091    -1440779.081  
  21263170.545      140421.489  
  24636399.193    16674421.946  
  21015646.132     3032096.483  
  20994830.836   -43722276.276  
  20610880.009   -60512527.197  
  23760844.621    -2023281.964  
  22387747.130   -62518724.390  
 18  6 25  2 56  0.0000000  0  9G27G30G11G23G18G07G08G09G01
  22299121.278     9776419.829  
  22985536.232    -1455857.333  
  21260816.815      128053.538  
  24639040.517    16688292.599  
  21013338.621     3019973.957  
  20993140.194   -43731154.389  
  20611948.895   -60506908.681  
  23763147.103    -2011193.185  
  22384445.703   -62536071.944  
 18  6 25  2 56  5.0000000  0  9G27G30G11G23G18G07G08G09G01
  22301748.713     9790226.569  
  22982667.220    -1470928.290  
  21258466.082      115696.981  
  24641678.540    16702160.187  
  21011034.679     3007864.729  
  20991454.267   -43740018.987  
  20613019.919   -60501281.994  
  23765446.714    -1999100.934  
  22381144.553   -62553412.578  
 18  6 25  2 56 10.0000000  0  9G27G30G11G23G18G07G08G09G01
  22304377.450     9804035.604  
  22979800.655    -1485991.877  
  21256115.793      103351.801  
  24644315.863    16716024.706  
  21008732.898     2995768.635  
  20989769.212   -43748870.097  
  20614091.816   -60495647.269  
  23767750.776    -1987005.198  
  22377847.425   -62570746.289  
 18  6 25  2 56 15.0000000  0  9G27G30G11G23G18G07G08G09G01
  22307006.120     9817846.977  
  22976933.308    -1501048.186  
  21253768.585       91017.903  
  24646953.262    16729886.044  
  21006434.341     2983685.748  
  20988087.238   -43757707.787  
  20615165.936   -60490004.541  
  23770053.054    -1974906.010  
  22374548.799   -62588073.207  
 18  6 25  2 56 20.0000000  0  9G27G30G11G23G18G07G08G09G01
  22309634.375     9831660.733  
  22974071.555    -1516097.059  
  21251423.680       78695.487  
  24649590.675    16743744.321  
  21004136.943     2971616.180  
  20986408.569   -43766531.901  
  20616240.642   -60484353.576  
  23772356.203    -1962803.324  
  22371253.048   -62605393.007  
 18  6 25  2 56 25.0000000  0  9G27G30G11G23G18G07G08G09G01
  22312262.943     9845476.924  
  22971208.398    -1531138.379  
  21249081.664       66384.613  
  24652228.114    16757599.618  
  21001843.578     2959559.914  
  20984733.075   -43775342.384  
  20617317.521   -60478694.438  
  23774661.240    -1950697.057  
  22367960.472   -62622705.808  
 18  6 25  2 56 30.0000000  0  9G27G30G11G23G18G07G08G09G01
  22314891.044     9859295.286  
  22968348.352    -1546172.494  
  21246741.613       54084.981  
  24654864.944    16771451.599  
  20999550.747     2947516.768  
  20983059.547   -43784139.499  
  20618396.652   -60473027.465  
  23776964.952    -1938587.515  
  22364667.000   -62640011.772  
 18  6 25  2 56 35.0000000  0  9G27G30G11G23G18G07G08G09G01
  22317522.284     9873115.906  
  22965489.012    -1561199.307  
  21244401.697       41796.674  
  24657499.332    16785300.300  
  20997261.772     2935486.815  
  20981386.439   -43792923.216  
  20619475.774   -60467352.591  
  23779270.086    -1926474.634  
  22361374.378   -62657310.842  
 18  6 25  2 56 40.0000000  0  9G27G30G11G23G18G07G08G09G01
  22320153.526     9886938.763  
  22962631.105    -1576218.654  
  21242066.934       29519.761  
  24660134.009    16799145.837  
  20994976.519     2923470.142  
  20979718.484   -43801693.395  
  20620558.189   -60461669.752  
  23781574.649    -1914358.333  
  22358084.762   -62674602.907  
 18  6 25  2 56 45.0000000  0  9G27G30G11G23G18G07G08G09G01
  22322783.479     9900763.925  
  22959773.482    -1591230.650  
  21239732.456       17254.243  
  24662769.113    16812988.223  
  20992691.550     2911466.809  
  20978051.816   -43810449.997  
  20621641.032   -60455978.836  
  23783882.073    -1902238.687  
  22354795.003   -62691887.956  
 18  6 25  2 56 50.0000000  0  9G27G30G11G23G18G07G08G09G01
  22325416.189     9914591.558  
  22956918.187    -1606234.998  
  21237400.734        5000.377  
  24665402.824    16826827.543  
  20990409.052     2899476.984  
  20976387.761   -43819192.863  
  20622725.344   -60450279.753  
  23786188.103    -1890115.481  
  22351508.715   -62709165.852  
 18  6 25  2 56 55.0000000  0  9G27G30G11G23G18G07G08G09G01
  22328045.193     9928421.257  
  22954065.339    -1621232.082  
  21235070.601       -7242.235  
  24668033.974    16840663.498  
  20988129.431     2887500.235  
  20974727.012   -43827922.344  
  20623810.815   -60444572.897  
  23788495.866    -1877989.085  
  22348220.438   -62726436.909  
 18  6 25  2 57  0.0000000  0  9G27G30G11G23G18G07G08G09G01
  22330678.791     9942253.185  
  22951211.936    -1636221.735  
  21232744.062      -19473.439  
  24670666.428    16854496.170  
  20985852.830     2875536.812  
  20973067.996   -43836638.295  
  20624898.592   -60438858.123  
  23790803.358    -1865859.390  
  22344933.609   -62743700.887  
 18  6 25  2 57  5.0000000  0  9G27G30G11G23G18G07G08G09G01
  22333310.805     9956087.481  
  22948360.666    -1651203.844  
  21230418.369      -31693.130  
  24673300.588    16868325.774  
  20983579.366     2863586.863  
  20971412.260   -43845340.596  
  20625987.359   -60433135.283  
  23793111.411    -1853726.243  
  22341651.490   -62760957.716  
 18  6 25  2 57 10.0000000  0  9G27G30G11G23G18G07G08G09G01
  22335944.336     9969924.060  
  22945511.774    -1666178.445  
  21228094.624      -43901.317  
  24675929.826    16882152.200  
  20981308.136     2851650.324  
  20969759.043   -43854029.247  
  20627077.644   -60427404.388  
  23795422.127    -1841589.753  
  22338369.315   -62778207.444  
 18  6 25  2 57 15.0000000  0  9G27G30G11G23G18G07G08G09G01
  22338578.567     9983762.782  
  22942664.439    -1681145.558  
  21225773.725      -56098.058  
  24678561.482    16895975.262  
  20979039.322     2839727.090  
  20968108.244   -43862704.320  
  20628169.201   -60421665.619  
  23797728.964    -1829450.022  
  22335086.552   -62795450.118  
 18  6 25  2 57 20.0000000  0  8G27G30G11G23G18G07G08G01
  22341212.981     9997603.801  
  22939816.715    -1696105.171  
  21223455.297      -68283.316  
  24681191.459    16909795.116  
  20976772.122     2827817.269  
  20966458.056   -43871365.775  
  20629262.657   -60415918.890  
  22331808.264   -62812685.711  
 18  6 25  2 57 25.0000000  0  8G27G30G11G23G18G07G08G01
  22343848.331    10011447.050  
  22936971.215    -1711057.242  
  21221138.093      -80457.050  
  24683819.655    16923611.734  
  20974508.291     2815920.852  
  20964815.101   -43880013.602  
  20630358.911   -60410164.148  
  22328529.196   -62829914.153  
 18  6 25  2 57 30.0000000  0  8G27G30G11G23G18G07G08G01
  22346481.553    10025292.556  
  22934128.310    -1726001.739  
  21218824.484      -92619.224  
  24686450.015    16937425.057  
  20972248.771     2804037.885  
  20963170.018   -43888647.757  
  20631455.040   -60404401.375  
  22325252.292   -62847135.383  
 18  6 25  2 57 35.0000000  0  8G27G30G11G23G18G07G08G01
  22349116.693    10039140.291  
  22931286.177    -1740938.643  
  21216511.506     -104769.861  
  24689075.425    16951235.154  
  20969988.021     2792168.384  
  20961530.859   -43897268.182  
  20632552.228   -60398630.670  
  22321975.590   -62864349.419  
 18  6 25  2 57 40.0000000  0  9G27G30G11G23G18G07G08G28G01
  22351752.177    10052990.199  
  22928446.249    -1755868.058  
  21214202.448     -116909.015  
  24691703.897    16965041.859  
  20967732.623     2780312.280  
  20959893.189   -43905874.985  
  20633653.909   -60392852.065  
  24834503.912    38506735.446  
  22318701.949   -62881556.335  
 18  6 25  2 57 45.0000000  0  9G27G30G11G23G18G07G08G28G01
  22354388.136    10066842.256  
  22925606.080    -1770789.921  
  21211893.866     -129036.701  
  24694329.840    16978845.167  
  20965479.846     2768469.594  
  20958257.854   -43914468.164  
  20634754.349   -60387065.611  
  24832497.539    38496219.813  
  22315428.498   -62898756.152  
 18  6 25  2 57 50.0000000  0  9G27G30G11G23G18G07G08G28G01
  22357023.882    10080696.552  
  22922766.700    -1785704.093  
  21209588.935     -141152.805  
  24696954.712    16992645.226  
  20963227.573     2756640.472  
  20956624.453   -43923047.562  
  20635856.436   -60381271.194  
  24830493.101    38485702.628  
  22312157.267   -62915948.627  
 18  6 25  2 57 55.0000000  0  9G27G30G11G23G18G07G08G28G01
  22359660.812    10094552.977  
  22919928.503    -1800610.750  
  21207285.186     -153257.424  
  24699580.194    17006441.905  
  20960979.630     2744824.673  
  20954994.381   -43931613.396  
  20636961.137   -60375468.959  
  24828486.412    38475183.647  
  22308887.648   -62933134.012  
 18  6 25  2 58  0.0000000  0  9G27G30G11G23G18G07G08G28G01
  22362298.133    10108411.676  
  22917092.988    -1815509.694  
  21204984.406     -165350.342  
  24702206.926    17020235.271  
  20958734.083     2733022.587  
  20953367.420   -43940165.334  
  20638066.517   -60369658.729  
  24826484.979    38464663.190  
  22305618.421   -62950312.060  
 18  6 25  2 58  5.0000000  0  9G27G30G11G23G18G07G08G28G01
  22364936.529    10122272.490  
  22914259.978    -1830401.012  
  21202685.701     -177431.720  
  24704827.150    17034025.325  
  20956490.755     2721233.823  
  20951743.108   -43948703.627  
  20639173.972   -60363840.681  
  24824482.046    38454140.987  
  22302350.984   -62967482.892  
 18  6 25  2 58 10.0000000  0  9G27G30G11G23G18G07G08G28G01
  22367573.213    10136135.401  
  22911430.551    -1845284.789  
  21200386.858     -189501.600  
  24707449.238    17047811.971  
  20954250.151     2709458.577  
  20950120.232   -43957228.246  
  20640282.148   -60358014.798  
  24822488.275    38443617.041  
  22299083.982   -62984646.484  
 18  6 25  2 58 15.0000000  0  9G27G30G11G23G18G07G08G28G01
  22370213.772    10150000.598  
  22908598.845    -1860160.816  
  21198092.320     -201559.708  
  24710074.343    17061595.268  
  20952011.990     2697696.950  
  20948500.515   -43965739.017  
  20641392.911   -60352180.915  
  24820496.233    38433091.571  
  22295820.425   -63001802.730  
 18  6 25  2 58 20.0000000  0  9G27G30G11G23G18G07G08G28G01
  22372851.667    10163867.695  
  22905770.056    -1875029.357  
  21195801.700     -213606.511  
  24712695.353    17075374.994  
  20949774.887     2685948.723  
  20946884.287   -43974236.230  
  20642504.302   -60346339.377  
  24818493.514    38422564.289  
  22292555.778   -63018951.854  
 18  6 25  2 58 25.0000000  0  9G27G30G11G23G18G07G08G28G01
  22375488.765    10177736.975  
  22902940.471    -1889890.239  
  21193511.285     -225641.729  
  24715316.139    17089151.322  
  20947542.424     2674213.968  
  20945269.981   -43982719.703  
  20643617.471   -60340490.041  
  24816486.707    38412035.219  
  22289295.057   -63036093.672  
 18  6 25  2 58 30.0000000  0  9G27G30G11G23G18G07G08G28G01
  22378130.592    10191608.489  
  22900114.183    -1904743.254  
  21191223.166     -237665.178  
  24717941.797    17102924.462  
  20945312.686     2662493.001  
  20943657.828   -43991189.254  
  20644731.792   -60334632.633  
  24814477.331    38401504.548  
  22286033.626   -63053228.024  
 18  6 25  2 58 35.0000000  0  8G27G30G11G23G18G07G08G01
  22380769.026    10205482.000  
  22897291.085    -1919588.724  
  21188937.663     -249677.146  
  24720563.775    17116693.820  
  20943084.135     2650785.466  
  20942049.151   -43999645.134  
  20645847.585   -60328767.613  
  22282776.673   -63070355.227  
 18  6 25  2 58 40.0000000  0  8G27G30G11G23G18G07G08G01
  22383408.308    10219357.741  
  22894467.117    -1934426.324  
  21186652.007     -261677.346  
  24723180.019    17130459.983  
  20940860.294     2639091.642  
  20940442.466   -44008087.065  
  20646965.513   -60322894.540  
  22279517.563   -63087474.935  
 18  6 25  2 58 45.0000000  0  8G27G30G11G23G18G07G08G01
  22386050.001    10233235.613  
  22891644.273    -1949256.166  
  21184371.911     -273665.939  
  24725800.249    17144222.679  
  20938636.576     2627411.436  
  20938838.765   -44016515.223  
  20648083.707   -60317013.646  
  22276261.437   -63104587.245  
 18  6 25  2 58 50.0000000  0  8G27G30G11G23G18G07G08G01
  22388692.355    10247115.563  
  22888824.092    -1964078.349  
  21182091.759     -285642.871  
  24728419.278    17157981.924  
  20936417.239     2615744.807  
  20937238.729   -44024929.539  
  20649204.421   -60311124.913  
  22273005.398   -63121692.204  
 18  6 25  2 58 55.0000000  0  8G27G30G11G23G18G07G08G01
  22391332.522    10260997.455  
  22886003.872    -1978892.858  
  21179816.862     -297608.341  
  24731039.126    17171737.417  
  20934199.721     2604091.672  
  20935639.226   -44033330.198  
  20650326.955   -60305228.530  
  22269753.612   -63138789.892  
 18  6 25  2 59  0.0000000  0  8G27G30G11G23G18G07G08G01
  22393975.241    10274881.490  
  22883186.346    -1993699.587  
  21177542.084     -309562.049  
  24733655.516    17185489.597  
  20931984.469     2592452.199  
  20934042.131   -44041716.944  
  20651450.753   -60299324.306  
  22266501.230   -63155880.122  
 18  6 25  2 59  5.0000000  0  8G27G30G11G23G18G07G08G01
  22396618.537    10288767.679  
  22880370.542    -2008498.379  
  21175268.742     -321504.028  
  24736271.052    17199238.306  
  20929771.226     2580826.477  
  20932450.049   -44050089.753  
  20652576.416   -60293412.124  
  22263248.280   -63172962.829  
 18  6 25  2 59 10.0000000  0  8G27G30G11G23G18G07G08G01
  22399262.084    10302655.815  
  22877555.991    -2023289.556  
  21172998.798     -333434.429  
  24738885.122    17212983.369  
  20927562.812     2569214.232  
  20930859.220   -44058448.812  
  20653701.901   -60287492.414  
  22260000.446   -63190038.219  
 18  6 25  2 59 15.0000000  0  7G27G30G11G18G07G08G01
  22401904.473    10316546.038  
  22874742.428    -2038072.926  
  21170730.273     -345353.133  
  20925355.387     2557615.717  
  20929271.526   -44066793.988  
  20654829.949   -60281564.873  
  22256753.029   -63207106.136  
 18  6 25  2 59 20.0000000  0  8G27G30G11G09G18G07G08G01
  22404548.854    10330438.264  
  22871930.714    -2052848.547  
  21168464.454     -357260.185  
  23855681.810    19650670.339  
  20923150.668     2546030.845  
  20927685.966   -44075125.321  
  20655959.987   -60275629.623  
  22253505.028   -63224166.662  
 18  6 25  2 59 25.0000000  0  8G27G30G11G09G18G07G08G01
  22407192.358    10344332.425  
  22869120.842    -2067616.372  
  21166201.336     -369155.650  
  23858005.647    19662891.071  
  20920948.507     2534459.632  
  20926102.821   -44083442.869  
  20657090.580   -60269686.761  
  22250261.015   -63241219.726  
 18  6 25  2 59 30.0000000  0  8G27G30G11G09G18G07G08G01
  22409835.725    10358228.642  
  22866311.977    -2082376.363  
  21163940.657     -381039.374  
  23860332.495    19675114.771  
  20918748.642     2522902.161  
  20924521.972   -44091746.505  
  20658223.040   -60263736.113  
  22247016.006   -63258265.309  
 18  6 25  2 59 35.0000000  0  8G27G30G11G09G18G07G08G01
  22412480.832    10372127.045  
  22863505.282    -2097128.332  
  21161680.001     -392911.268  
  23862659.509    19687341.513  
  20916552.234     2511358.600  
  20922945.581   -44100036.046  
  20659358.671   -60257777.523  
  22243772.881   -63275303.231  
 18  6 25  2 59 40.0000000  0  8G27G30G11G09G18G07G08G01
  22415127.555    10386027.410  
  22860700.203    -2111872.508  
  21159424.823     -404771.434  
  23864987.995    19699571.139  
  20914357.299     2499828.664  
  20921370.949   -44108311.731  
  20660492.626   -60251811.243  
  22240533.517   -63292333.693  
 18  6 25  2 59 45.0000000  0  8G27G30G11G09G18G07G08G01
  22417771.108    10399929.754  
  22857895.960    -2126608.763  
  21157169.052     -416619.871  
  23867314.885    19711803.681  
  20912166.491     2488312.469  
  20919798.012   -44116573.499  
  20661628.419   -60245837.130  
  22237294.561   -63309356.590  
 18  6 25  2 59 50.0000000  0  8G27G30G11G09G18G07G08G01
  22420418.852    10413834.060  
  22855090.328    -2141337.242  
  21154916.899     -428456.626  
  23869643.248    19724039.011  
  20909978.014     2476809.992  
  20918228.408   -44124821.409  
  20662767.830   -60239855.512  
  22234057.793   -63326372.018  
 18  6 25  2 59 55.0000000  0  8G27G30G11G09G18G07G08G01
  22423064.189    10427740.438  
  22852290.159    -2156057.734  
  21152665.917     -440281.578  
  23871972.639    19736277.264  
  20907791.996     2465321.350  
  20916662.407   -44133055.292  
  20663907.269   -60233866.047  
  22230819.906   -63343379.815  
 18  6 25  3  0  0.0000000  0  8G27G30G11G09G18G07G08G01
  22425711.820    10441648.767  
  22849492.999    -2170770.322  
  21150418.230     -452094.755  
  23874301.890    19748518.403  
  20905609.129     2453846.529  
  20915096.696   -44141275.262  
  20665048.427   -60227868.976  
  22227585.314   -63360380.057  
 18  6 25  3  0  5.0000000  0  8G27G30G11G09G18G07G08G01
  22428357.899    10455559.069  
  22846694.717    -2185474.995  
  21148172.140     -463896.165  
  23876632.594    19760762.374  
  20903427.430     2442385.438  
  20913536.159   -44149481.216  
  20666190.754   -60221864.152  
  22224352.032   -63377372.660  
 18  6 25  3  0 10.0000000  0  8G27G30G11G09G18G07G08G01
  22431006.754    10469471.288  
  22843896.205    -2200171.842  
  21145930.542     -475685.941  
  23878962.927    19773009.044  
  20901249.365     2430938.062  
  20911977.682   -44157673.300  
  20667335.141   -60215851.726  
  22221118.378   -63394357.777  
 18  6 25  3  0 15.0000000  0  8G27G30G11G09G18G07G08G01
  22433654.091    10483385.612  
  22841103.474    -2214860.536  
  21143687.856     -487463.706  
  23881293.744    19785258.740  
  20899072.930     2419504.651  
  20910419.834   -44165851.084  
  20668481.157   -60209831.444  
  22217888.930   -63411335.070  
 18  6 25  3  0 20.0000000  0  8G27G30G11G09G18G07G08G01
  22436299.309    10497301.838  
  22838307.764    -2229541.338  
  21141448.773     -499229.756  
  23883626.163    19797511.199  
  20896901.102     2408085.051  
  20908867.450   -44174014.957  
  20669628.059   -60203803.511  
  22214659.652   -63428304.762  
 18  6 25  3  0 25.0000000  0  8G27G30G11G09G18G07G08G01
  22438950.124    10511219.955  
  22835514.790    -2244214.156  
  21139213.143     -510984.091  
  23885957.597    19809766.347  
  20894730.291     2396679.238  
  20907316.371   -44182164.951  
  20670775.550   -60197768.059  
  22211432.966   -63445266.890  
 18  6 25  3  0 30.0000000  0  8G27G30G11G09G18G07G08G01
  22441598.579    10525140.016  
  22832723.892    -2258879.074  
  21136977.870     -522726.559  
  23888289.676    19822024.273  
  20892561.986     2385287.296  
  20905768.369   -44190300.903  
  20671926.262   -60191724.889  
  22208205.352   -63462221.324  
 18  6 25  3  0 35.0000000  0  8G27G30G11G09G18G07G08G01
  22444247.396    10539062.076  
  22829933.213    -2273535.920  
  21134745.536     -534457.143  
  23890623.119    19834285.036  
  20890396.619     2373909.263  
  20904222.733   -44198422.769  
  20673077.623   -60185674.010  
  22204980.675   -63479168.004  
 18  6 25  3  0 40.0000000  0  8G27G30G11G09G18G07G08G01
  22446898.107    10552985.977  
  22827147.289    -2288184.850  
  21132515.382     -546176.016  
  23892956.309    19846548.421  
  20888233.145     2362544.967  
  20902678.990   -44206530.732  
  20674231.020   -60179615.643  
  22201757.605   -63496107.089  
 18  6 25  3  0 45.0000000  0  9G27G30G11G09G18G07G08G28G01
  22449547.448    10566911.715  
  22824363.000    -2302825.774  
  21130287.291     -557883.126  
  23895290.418    19858814.507  
  20886074.740     2351194.552  
  20901139.601   -44214624.684  
  20675385.336   -60173549.764  
  24760256.188    72907824.221  
  22198536.171   -63513038.569  
 18  6 25  3  0 50.0000000  0  9G27G30G11G09G18G07G08G28G01
  22452197.724    10580839.457  
  22821579.075    -2317458.599  
  21128061.424     -569578.274  
  23897625.605    19871083.337  
  20883915.125     2339858.161  
  20899602.435   -44222704.425  
  20676540.301   -60167476.050  
  24758234.083    72897246.808  
  22195314.240   -63529962.147  
 18  6 25  3  0 55.0000000  0  9G27G30G11G09G18G07G08G28G01
  22454848.580    10594768.827  
  22818794.441    -2332083.583  
  21125838.998     -581261.907  
  23899960.371    19883354.620  
  20881762.957     2328535.418  
  20898066.994   -44230770.469  
  20677697.707   -60161395.062  
  24756216.565    72886667.357  
  22192095.180   -63546878.314  
 18  6 25  3  1  0.0000000  0  9G27G30G11G09G18G07G08G28G01
  22457500.116    10608700.261  
  22816010.773    -2346700.373  
  21123617.109     -592933.430  
  23902296.819    19895628.838  
  20879611.756     2317226.740  
  20896534.808   -44238822.219  
  20678856.794   -60155306.266  
  24754201.445    72876086.447  
  22188876.656   -63563786.512  
 18  6 25  3  1  5.0000000  0 10G27G30G11G09G23G18G07G08G28G01
  22460151.961    10622633.440  
  22813229.990    -2361309.249  
  21121397.819     -604593.386  
  23904631.286    19907905.449  
  24798855.634    69929966.785  
  20877461.436     2305931.822  
  20895005.078   -44246860.072  
  20680015.761   -60149210.128  
  24752188.350    72865503.576  
  22185662.590   -63580687.119  
 18  6 25  3  1 10.0000000  0 10G27G30G11G09G23G18G07G08G28G01
  22462803.873    10636568.549  
  22810454.999    -2375909.957  
  21119181.744     -616241.298  
  23906969.398    19920184.901  
  24801451.740    69943624.034  
  20875314.332     2294650.935  
  20893478.420   -44254883.729  
  20681178.087   -60143106.214  
  24750174.750    72854919.229  
  22182446.589   -63597579.871  
 18  6 25  3  1 15.0000000  0 10G27G30G11G09G23G18G07G08G28G01
  22465455.053    10650505.604  
  22807678.558    -2390502.468  
  21116968.514     -627877.293  
  23909305.346    19932466.969  
  24804054.126    69957277.565  
  20873169.213     2283384.096  
  20891953.605   -44262893.196  
  20682341.540   -60136994.671  
  24748162.278    72844333.124  
  22179234.148   -63614464.690  
 18  6 25  3  1 20.0000000  0 10G27G30G11G09G23G18G07G08G28G01
  22468108.680    10664444.384  
  22804902.133    -2405087.057  
  21114756.014     -639501.561  
  23911642.311    19944751.584  
  24806651.374    69970927.167  
  20871028.116     2272131.135  
  20890432.668   -44270888.689  
  20683505.437   -60130875.724  
  24746146.958    72833745.261  
  22176022.008   -63631341.909  
 18  6 25  3  1 25.0000000  0 10G27G30G11G09G23G18G07G08G28G01
  22470760.857    10678385.033  
  22802127.979    -2419663.501  
  21112545.212     -651113.876  
  23913979.829    19957038.819  
  24809247.030    69984572.941  
  20868890.577     2260892.044  
  20888914.431   -44278870.038  
  20684671.604   -60124749.261  
  24744133.910    72823155.703  
  22172812.854   -63648211.238  
 18  6 25  3  1 30.0000000  0 10G27G30G11G09G23G18G07G08G28G01
  22473412.534    10692327.514  
  22799356.328    -2434231.808  
  21110339.204     -662714.295  
  23916317.562    19969328.625  
  24811842.758    69998214.903  
  20866754.970     2249667.013  
  20887397.840   -44286837.255  
  20685837.701   -60118615.284  
  24742117.069    72812564.500  
  22169605.059   -63665072.772  
 18  6 25  3  1 35.0000000  0 10G27G30G11G09G23G18G07G08G28G01
  22476067.204    10706271.795  
  22796584.524    -2448791.969  
  21108133.042     -674302.808  
  23918657.144    19981621.039  
  24814437.187    70011853.030  
  20864620.211     2238456.004  
  20885883.385   -44294790.380  
  20687007.077   -60112473.723  
  24740101.363    72801971.568  
  22166396.538   -63681926.429  
 18  6 25  3  1 40.0000000  0 10G27G30G11G09G23G18G07G08G28G01
  22478721.807    10720217.939  
  22793815.084    -2463343.990  
  21105930.819     -685879.441  
  23920998.232    19993915.981  
  24817032.692    70025487.236  
  20862489.248     2227258.978  
  20884373.583   -44302729.353  
  20688177.244   -60106324.599  
  24738082.583    72791376.943  
  22163190.382   -63698772.273  
 18  6 25  3  1 45.0000000  0 10G27G30G11G09G23G18G07G08G28G01
  22481375.697    10734165.795  
  22791049.082    -2477887.886  
  21103729.601     -697444.145  
  23923338.465    20006213.463  
  24819625.626    70039117.521  
  20860361.006     2216075.983  
  20882866.218   -44310654.174  
  20689348.845   -60100167.990  
  24736067.384    72780780.633  
  22159986.948   -63715610.222  
 18  6 25  3  1 50.0000000  0 10G27G30G11G09G23G18G07G08G28G01
  22484029.820    10748115.532  
  22788282.740    -2492423.584  
  21101532.192     -708996.929  
  23925681.220    20018513.515  
  24822220.795    70052743.974  
  20858235.573     2204906.994  
  20881360.229   -44318564.793  
  20690522.682   -60094003.919  
  24734052.704    72770182.599  
  22156784.175   -63732440.261  
 18  6 25  3  1 55.0000000  0 10G27G30G11G09G23G18G07G08G28G01
  22486685.761    10762067.030  
  22785519.789    -2506951.157  
  21099335.599     -720537.871  
  23928021.357    20030816.033  
  24824810.913    70066366.473  
  20856113.531     2193751.984  
  20879858.204   -44326461.324  
  20691696.477   -60087832.423  
  24732034.976    72759582.891  
  22153582.934   -63749262.452  
 18  6 25  3  2  0.0000000  0 10G27G30G11G09G23G18G07G08G28G01
  22489341.575    10776020.363  
  22782753.707    -2521470.417  
  21097141.455     -732066.697  
  23930360.508    20043121.152  
  24827402.622    70079985.190  
  20853993.652     2182611.101  
  20878357.913   -44334343.536  
  20692872.005   -60081653.323  
  24730016.835    72748981.561  
  22150382.854   -63766076.644  
 18  6 25  3  2  5.0000000  0 10G27G30G11G09G23G18G07G08G28G01
  22491994.957    10789975.610  
  22779993.635    -2535981.410  
  21094950.747     -743583.540  
  23932701.663    20055428.853  
  24829993.186    70093600.001  
  20851877.065     2171484.445  
  20876860.628   -44342211.493  
  20694050.252   -60075466.611  
  24727998.695    72738378.547  
  22147186.638   -63782882.825  
 18  6 25  3  2 10.0000000  0 10G27G30G11G09G23G18G07G08G28G01
  22494651.875    10803932.566  
  22777232.092    -2550484.211  
  21092760.713     -755088.489  
  23935045.783    20067738.969  
  24832584.283    70107210.897  
  20849762.154     2160371.746  
  20875365.878   -44350065.311  
  20695228.602   -60069272.496  
  24725980.229    72727773.777  
  22143988.951   -63799681.108  
 18  6 25  3  2 15.0000000  0 10G27G30G11G09G23G18G07G08G28G01
  22497307.055    10817891.205  
  22774475.106    -2564978.800  
  21090573.375     -766581.514  
  23937387.305    20080051.559  
  24835173.926    70120817.821  
  20847649.654     2149273.189  
  20873875.541   -44357904.913  
  20696408.074   -60063070.944  
  24723964.602    72717167.280  
  22140793.961   -63816471.465  
 18  6 25  3  2 20.0000000  0 10G27G30G11G09G23G18G07G08G28G01
  22499962.521    10831851.632  
  22771720.124    -2579465.165  
  21088388.471     -778062.562  
  23939729.830    20092366.517  
  24837762.283    70134420.736  
  20845541.590     2138188.668  
  20872385.205   -44365730.269  
  20697589.837   -60056861.871  
  24721947.401    72706559.055  
  22137599.543   -63833253.832  
 18  6 25  3  2 25.0000000  0  9G27G30G11G09G23G18G07G08G01
  22502621.609    10845813.920  
  22768963.182    -2593943.189  
  21086206.902     -789531.529  
  23942078.265    20104684.068  
  24840348.966    70148019.842  
  20843434.286     2127118.370  
  20870899.063   -44373541.281  
  20698772.932   -60050645.276  
  22134407.030   -63850028.109  
 18  6 25  3  2 30.0000000  0  9G27G30G11G09G23G18G07G08G01
  22505278.415    10859778.010  
  22766210.541    -2608412.853  
  21084024.912     -800988.413  
  23944422.558    20117004.176  
  24842938.232    70161614.990  
  20841328.992     2116062.264  
  20869416.076   -44381338.007  
  20699957.464   -60044421.119  
  22131217.099   -63866794.303  
 18  6 25  3  2 35.0000000  0  9G27G30G11G09G23G18G07G08G01
  22507936.772    10873743.641  
  22763458.021    -2622874.400  
  21081848.909     -812433.498  
  23946768.260    20129326.441  
  24845524.615    70175205.964  
  20839228.685     2105020.133  
  20867934.642   -44389120.681  
  20701143.836   -60038189.751  
  22128029.723   -63883552.686  
 18  6 25  3  2 40.0000000  0  9G27G30G11G09G23G18G07G08G01
  22510592.751    10887711.027  
  22760707.271    -2637327.616  
  21079672.530     -823866.536  
  23949112.440    20141651.169  
  24848107.473    70188793.022  
  20837129.862     2093992.173  
  20866455.263   -44396889.055  
  20702331.261   -60031950.882  
  22124840.825   -63900302.969  
 18  6 25  3  2 45.0000000  0  9G27G30G11G09G23G18G07G08G01
  22513252.325    10901680.270  
  22757958.829    -2651772.480  
  21077499.747     -835287.478  
  23951457.069    20153978.348  
  24850693.068    70202376.107  
  20835033.919     2082978.405  
  20864979.338   -44404643.058  
  20703519.278   -60025704.609  
  22121654.808   -63917045.154  
 18  6 25  3  2 50.0000000  0  9G27G30G11G09G23G18G07G08G01
  22515911.152    10915651.109  
  22755211.213    -2666209.049  
  21075328.506     -846696.475  
  23953803.956    20166307.838  
  24853275.770    70215955.143  
  20832940.806     2071978.841  
  20863508.103   -44412382.850  
  20704708.551   -60019450.976  
  22118469.332   -63933779.309  
 18  6 25  3  2 55.0000000  0  9G27G30G11G09G23G18G07G08G01
  22518569.450    10929623.634  
  22752465.503    -2680637.330  
  21073159.169     -858093.548  
  23956149.599    20178639.637  
  24855861.378    70229530.056  
  20830850.600     2060993.348  
  20862038.199   -44420108.393  
  20705900.730   -60013189.971  
  22115287.763   -63950505.428  
 18  6 25  3  3  0.0000000  0  9G27G30G11G09G23G18G07G08G01
  22521228.772    10943597.883  
  22749721.959    -2695057.266  
  21070992.429     -869478.524  
  23958497.695    20190973.742  
  24858441.999    70243100.929  
  20828762.417     2050022.037  
  20860570.321   -44427819.630  
  20707093.359   -60006921.600  
  22112106.502   -63967223.466  
 18  6 25  3  3  5.0000000  0  9G27G30G11G09G23G18G07G08G01
  22523887.393    10957573.860  
  22746978.431    -2709468.732  
  21068828.566     -880851.344  
  23960843.946    20203310.351  
  24861024.352    70256667.799  
  20826677.255     2039065.047  
  20859105.748   -44435516.441  
  20708287.434   -60000645.657  
  22108925.398   -63983933.329  
 18  6 25  3  3 10.0000000  0  9G27G30G11G09G23G18G07G08G01
  22526545.222    10971551.526  
  22744235.828    -2723871.828  
  21066665.915     -892212.169  
  23963190.551    20215649.216  
  24863607.487    70270230.675  
  20824596.023     2028122.285  
  20857642.959   -44443198.918  
  20709482.435   -59994362.328  
  22105747.652   -64000635.051  
 18  6 25  3  3 15.0000000  0  9G27G30G11G09G23G18G07G08G01
  22529208.208    10985530.930  
  22741499.097    -2738266.507  
  21064507.990     -903560.841  
  23965540.737    20227990.463  
  24866185.047    70283789.435  
  20822516.513     2017193.790  
  20856184.468   -44450867.044  
  20710680.159   -59988071.681  
  22102573.489   -64017328.576  
 18  6 25  3  3 20.0000000  0  9G27G30G11G09G23G18G07G08G01
  22531868.678    10999511.966  
  22738761.567    -2752652.834  
  21062349.697     -914897.527  
  23967887.693    20240333.939  
  24868765.958    70297344.088  
  20820439.925     2006279.553  
  20854729.042   -44458520.819  
  20711878.945   -59981773.681  
  22099396.954   -64034014.018  
 18  6 25  3  3 25.0000000  0  9G27G30G11G09G23G18G07G08G01
  22534529.443    11013494.701  
  22736028.483    -2767030.706  
  21060196.707     -926221.959  
  23970233.370    20252679.702  
  24871343.874    70310894.721  
  20818364.920     1995379.623  
  20853273.625   -44466160.183  
  20713078.599   -59975468.215  
  22096223.576   -64050691.249  
 18  6 25  3  3 30.0000000  0  9G27G30G11G09G23G18G07G08G01
  22537190.932    11027479.009  
  22733290.684    -2781400.303  
  21058042.294     -937534.489  
  23972585.924    20265027.675  
  24873921.797    70324441.036  
  20816293.644     1984493.763  
  20851822.509   -44473785.316  
  20714279.835   -59969155.596  
  22093051.350   -64067360.411  
 18  6 25  3  3 35.0000000  0  9G27G30G11G09G23G18G07G08G01
  22539851.652    11041464.894  
  22730558.127    -2795761.466  
  21055890.976     -948834.948  
  23974938.567    20277377.792  
  24876498.093    70337983.144  
  20814224.174     1973622.145  
  20850374.058   -44481396.025  
  20715482.305   -59962835.624  
  22089879.786   -64084021.357  
 18  6 25  3  3 40.0000000  0  9G27G30G11G09G23G18G07G08G01
  22542511.976    11055452.513  
  22727827.033    -2810114.109  
  21053742.839     -960123.302  
  23977288.095    20289730.257  
  24879073.706    70351521.194  
  20812158.601     1962764.788  
  20848929.361   -44488992.355  
  20716687.241   -59956508.304  
  22086710.402   -64100674.082  
 18  6 25  3  3 45.0000000  0  9G27G30G11G09G23G18G07G08G01
  22545176.083    11069441.768  
  22725097.433    -2824458.226  
  21051598.485     -971399.528  
  23979639.975    20302084.974  
  24881650.956    70365055.168  
  20810096.095     1951921.864  
  20847487.159   -44496574.283  
  20717890.523   -59950173.518  
  22083544.229   -64117318.560  
 18  6 25  3  3 50.0000000  0  9G27G30G11G09G23G18G07G08G01
  22547838.811    11083432.605  
  22722369.602    -2838794.010  
  21049454.469     -982663.701  
  23981992.480    20314441.822  
  24884223.393    70378584.890  
  20808034.930     1941093.188  
  20846046.154   -44504141.852  
  20719098.578   -59943831.603  
  22080377.535   -64133954.836  
 18  6 25  3  3 55.0000000  0  9G27G30G11G09G23G18G07G08G01
  22550503.751    11097425.162  
  22719644.698    -2853121.164  
  21047313.381     -993915.653  
  23984343.476    20326801.009  
  24886798.614    70392110.577  
  20805977.693     1930278.944  
  20844608.076   -44511694.889  
  20720307.844   -59937482.192  
  22077213.339   -64150582.747  
 18  6 25  3  4  0.0000000  0  9G27G30G11G09G23G18G07G08G01
  22553164.291    11111419.214  
  22716918.830    -2867439.928  
  21045173.902    -1005155.572  
  23986699.088    20339162.396  
  24889369.722    70405632.011  
  20803922.067     1919478.956  
  20843173.612   -44519233.639  
  20721516.860   -59931125.605  
  22074050.754   -64167202.523  
 18  6 25  3  4  5.0000000  0  9G27G30G11G09G23G18G07G08G01
  22555828.604    11125414.891  
  22714195.875    -2881750.129  
  21043037.052    -1016383.335  
  23989051.604    20351525.825  
  24891941.455    70419149.227  
  20801869.355     1908693.272  
  20841741.919   -44526757.910  
  20722727.645   -59924761.679  
  22070889.652   -64183813.980  
 18  6 25  3  4 10.0000000  0  9G27G30G11G09G23G18G07G08G01
  22558489.691    11139412.184  
  22711474.273    -2896051.794  
  21040902.699    -1027598.926  
  23991405.472    20363891.416  
  24894514.969    70432662.301  
  20799819.283     1897922.040  
  20840313.295   -44534267.741  
  20723939.497   -59918390.496  
  22067730.617   -64200417.116  
 18  6 25  3  4 15.0000000  0  9G27G30G11G09G23G18G07G08G01
  22561155.833    11153410.941  
  22708754.149    -2910345.087  
  21038771.542    -1038802.495  
  23993756.955    20376258.992  
  24897083.093    70446171.001  
  20797773.265     1887165.049  
  20838886.722   -44541763.237  
  20725153.828   -59912012.171  
  22064573.061   -64217012.100  
 18  6 25  3  4 20.0000000  0  9G27G30G11G09G23G18G07G08G01
  22563818.306    11167411.211  
  22706036.223    -2924629.894  
  21036641.294    -1049993.997  
  23996110.636    20388628.604  
  24899654.131    70459675.439  
  20795728.157     1876422.319  
  20837462.061   -44549244.339  
  20726368.498   -59905626.742  
  22061417.274   -64233598.796  
 18  6 25  3  4 25.0000000  0  8G27G30G11G23G18G07G08G01
  22566480.697    11181413.160  
  22703320.933    -2938906.101  
  21034514.971    -1061173.235  
  24902223.512    70473175.725  
  20793685.829     1865694.059  
  20836042.755   -44556710.856  
  20727585.803   -59899233.959  
  22058261.834   -64250177.111  
 18  6 25  3  4 30.0000000  0  9G27G30G11G28G23G18G07G08G01
  22569147.289    11195416.557  
  22700604.979    -2953173.809  
  21032389.414    -1072340.379  
  24669347.492    29850513.720  
  24904792.515    70486671.652  
  20791648.273     1854980.117  
  20834624.930   -44564162.997  
  20728803.160   -59892834.009  
  22055109.592   -64266747.150  
 18  6 25  3  4 35.0000000  0  9G27G30G11G28G23G18G07G08G01
  22571812.527    11209421.568  
  22697892.250    -2967432.831  
  21030265.938    -1083495.313  
  24667318.457    29839858.775  
  24907359.306    70500163.350  
  20789612.226     1844280.642  
  20833209.330   -44571600.621  
  20730022.454   -59886426.687  
  22051956.855   -64283308.739  
 18  6 25  3  4 40.0000000  0  9G27G30G11G28G23G18G07G08G01
  22574478.218    11223428.149  
  22695179.402    -2981683.271  
  21028146.349    -1094638.043  
  24665291.735    29829202.576  
  24909926.979    70513650.844  
  20787578.779     1833595.565  
  20831798.046   -44579023.730  
  20731244.348   -59880012.159  
  22048806.003   -64299861.939  
 18  6 25  3  4 45.0000000  0  9G27G30G11G28G23G18G07G08G01
  22577145.464    11237436.344  
  22692471.257    -2995925.060  
  21026027.886    -1105768.510  
  24663261.130    29818544.775  
  24912490.913    70527134.164  
  20785547.888     1822924.939  
  20830386.314   -44586432.282  
  20732465.936   -59873590.405  
  22045658.709   -64316406.688  
 18  6 25  3  4 50.0000000  0  9G27G30G11G28G23G18G07G08G01
  22579812.052    11251446.018  
  22689760.450    -3010158.233  
  21023913.057    -1116886.760  
  24661233.158    29807885.219  
  24915055.762    70540613.265  
  20783521.060     1812268.773  
  20828979.647   -44593826.293  
  20733688.011   -59867161.365  
  22042513.046   -64332943.064  
 18  6 25  3  4 55.0000000  0  9G27G30G11G28G23G18G07G08G01
  22582477.666    11265457.156  
  22687053.821    -3024382.890  
  21021799.830    -1127992.867  
  24659201.780    29797223.825  
  24917618.922    70554087.776  
  20781495.692     1801627.014  
  20827575.584   -44601205.876  
  20734913.548   -59860725.264  
  22039367.411   -64349471.097  
 18  6 25  3  5  0.0000000  0  9G27G30G11G28G23G18G07G08G01
  22585141.401    11279469.952  
  22684349.177    -3038598.701  
  21019688.445    -1139086.646  
  24657173.960    29786560.871  
  24920183.209    70567558.112  
  20779472.881     1790999.791  
  20826173.648   -44608570.830  
  20736139.352   -59854281.809  
  22036221.614   -64365990.524  
 18  6 25  3  5  5.0000000  0  9G27G30G11G28G23G18G07G08G01
  22587809.195    11293484.218  
  22681644.728    -3052805.961  
  21017579.115    -1150168.208  
  24655144.475    29775896.159  
  24922745.401    70581024.127  
  20777453.412     1780387.071  
  20824775.342   -44615921.265  
  20737366.926   -59847831.172  
  22033080.735   -64382501.584  
 18  6 25  3  5 10.0000000  0  9G27G30G11G28G23G18G07G08G01
  22590476.819    11307500.048  
  22678943.113    -3067004.454  
  21015472.620    -1161237.521  
  24653116.681    29765229.764  
  24925307.280    70594485.827  
  20775435.921     1769788.826  
  20823378.869   -44623257.097  
  20738595.618   -59841373.285  
  22029941.402   -64399004.086  
 18  6 25  3  5 15.0000000  0  9G27G30G11G28G23G18G07G08G01
  22593145.341    11321517.269  
  22676243.971    -3081194.415  
  21013369.026    -1172294.699  
  24651087.495    29754561.570  
  24927868.483    70607943.085  
  20773423.190     1759204.986  
  20821985.727   -44630578.463  
  20739826.209   -59834908.396  
  22026802.252   -64415498.250  
 18  6 25  3  5 20.0000000  0  9G27G30G11G28G23G18G07G08G01
  22595812.577    11335536.114  
  22673545.547    -3095375.513  
  21011267.009    -1183339.462  
  24649055.450    29743891.792  
  24930426.969    70621396.099  
  20771412.180     1748635.827  
  20820596.021   -44637885.103  
  20741057.375   -59828436.124  
  22023666.968   -64431983.724  
 18  6 25  3  5 25.0000000  0  9G27G30G11G28G23G18G07G08G01
  22598480.703    11349556.313  
  22670847.869    -3109548.090  
  21009168.743    -1194372.156  
  24647027.585    29733220.154  
  24932988.921    70634844.611  
  20769403.203     1738081.005  
  20819208.350   -44645177.297  
  20742290.718   -59821956.868  
  22020530.141   -64448460.905  
 18  6 25  3  5 30.0000000  0  9G27G30G11G28G23G18G07G08G01
  22601146.492    11363578.035  
  22668151.573    -3123711.900  
  21007070.572    -1205392.481  
  24644995.379    29722546.838  
  24935544.385    70648288.701  
  20767397.326     1727540.823  
  20817823.349   -44652454.857  
  20743524.872   -59815470.457  
  22017397.415   -64464929.491  
 18  6 25  3  5 35.0000000  0  9G27G30G11G28G23G18G07G08G01
  22603816.667    11377601.287  
  22665457.519    -3137866.913  
  21004975.930    -1216400.472  
  24642963.268    29711871.837  
  24938100.660    70661728.593  
  20765393.834     1717015.183  
  20816441.161   -44659717.747  
  20744760.837   -59808976.911  
  22014263.354   -64481389.451  
 18  6 25  3  5 40.0000000  0  8G27G30G11G28G18G07G08G01
  22606485.245    11391625.858  
  22662765.587    -3152013.276  
  21002884.268    -1227396.301  
  24640931.133    29701194.999  
  20763393.465     1706503.996  
  20815061.382   -44666966.137  
  20745997.637   -59802476.317  
  22011134.419   -64497841.003  
 18  6 25  3  5 45.0000000  0  9G27G30G11G28G09G18G07G08G01
  22609154.319    11405652.117  
  22660073.865    -3166150.661  
  21000792.674    -1238379.621  
  24638898.063    29690516.653  
  24036190.882    38790849.174  
  20761396.311     1696007.578  
  20813686.535   -44674199.693  
  20747235.505   -59795968.366  
  22008005.694   -64514283.762  
 18  6 25  3  5 50.0000000  0  9G27G30G11G28G09G18G07G08G01
  22611823.443    11419679.727  
  22657386.773    -3180279.438  
  20998704.278    -1249350.754  
  24636863.756    29679836.470  
  24038543.773    38803254.897  
  20759401.497     1685525.657  
  20812311.453   -44681418.713  
  20748476.143   -59789453.312  
  22004877.306   -64530718.043  
 18  6 25  3  5 55.0000000  0  9G27G30G11G28G09G18G07G08G01
  22614493.837    11433708.851  
  22654700.235    -3194399.320  
  20996619.584    -1260309.560  
  24634832.150    29669154.651  
  24040908.952    38815662.552  
  20757409.384     1675058.378  
  20810940.931   -44688622.983  
  20749717.621   -59782931.062  
  22001751.619   -64547143.648  
 18  6 25  3  6  0.0000000  0  9G27G30G11G28G09G18G07G08G01
  22617164.174    11447739.387  
  22652016.215    -3208510.427  
  20994536.551    -1271256.073  
  24632796.480    29658471.145  
  24043270.783    38828071.962  
  20755421.078     1664605.662  
  20809571.926   -44695812.668  
  20750959.185   -59776401.779  
  21998627.449   -64563560.661  
 18  6 25  3  6  5.0000000  0  9G27G30G11G28G09G18G07G08G01
  22619834.029    11461771.366  
  22649331.856    -3222612.730  
  20992456.469    -1282190.313  
  24630764.048    29647785.858  
  24045633.419    38840483.268  
  20753435.007     1654167.596  
  20808207.733   -44702987.712  
  20752202.556   -59769865.364  
  21995503.654   -64579969.083  
 18  6 25  3  6 10.0000000  0  9G27G30G11G28G09G18G07G08G01
  22622503.258    11475804.620  
  22646651.451    -3236706.319  
  20990377.336    -1293112.250  
  24628732.421    29637098.756  
  24047995.573    38852896.222  
  20751451.460     1643744.102  
  20806844.060   -44710148.168  
  20753449.166   -59763321.972  
  21992384.959   -64596368.919  
 18  6 25  3  6 15.0000000  0  9G27G30G11G28G09G18G07G08G01
  22625176.315    11489839.327  
  22643969.721    -3250791.077  
  20988302.316    -1304021.893  
  24626697.897    29626409.981  
  24050355.974    38865311.098  
  20749471.453     1633335.229  
  20805484.643   -44717293.925  
  20754696.168   -59756771.462  
  21989265.940   -64612760.134  
 18  6 25  3  6 20.0000000  0  9G27G30G11G28G09G18G07G08G01
  22627844.323    11503875.555  
  22641292.531    -3264866.948  
  20986227.829    -1314919.141  
  24624666.623    29615719.558  
  24052720.627    38877727.764  
  20747490.548     1622941.098  
  20804128.334   -44724424.949  
  20755942.844   -59750213.731  
  21986147.740   -64629142.562  
 18  6 25  3  6 25.0000000  0  9G27G30G11G28G09G18G07G08G01
  22630516.743    11517913.110  
  22638613.886    -3278933.913  
  20984157.611    -1325804.025  
  24622632.321    29605027.374  
  24055082.824    38890146.237  
  20745517.346     1612561.580  
  20802773.432   -44731541.253  
  20757192.645   -59743649.006  
  21983032.808   -64645516.309  
 18  6 25  3  6 30.0000000  0  9G27G30G11G28G09G18G07G08G01
  22633189.067    11531952.038  
  22635938.292    -3292992.121  
  20982088.441    -1336676.578  
  24620595.490    29594333.423  
  24057443.208    38902566.513  
  20743545.192     1602196.679  
  20801422.297   -44738642.909  
  20758442.492   -59737077.262  
  21979917.779   -64661881.427  
 18  6 25  3  6 35.0000000  0  9G27G30G11G28G09G18G07G08G01
  22635860.950    11545992.234  
  22633264.977    -3307041.485  
  20980021.263    -1347536.908  
  24618560.793    29583637.613  
  24059806.156    38914988.293  
  20741574.887     1591846.335  
  20800074.156   -44745730.038  
  20759694.617   -59730498.683  
  21976805.171   -64678238.007  
 18  6 25  3  6 40.0000000  0  9G27G30G11G28G09G18G07G08G01
  22638533.656    11560033.821  
  22630594.201    -3321081.987  
  20977956.910    -1358384.869  
  24616525.918    29572940.095  
  24062170.641    38927411.863  
  20739608.124     1581510.667  
  20798727.839   -44752802.402  
  20760948.137   -59723913.104  
  21973693.243   -64694585.794  
 18  6 25  3  6 45.0000000  0  9G27G30G11G28G09G18G07G08G01
  22641206.770    11574076.755  
  22627924.692    -3335113.615  
  20975894.683    -1369220.466  
  24614489.161    29562240.894  
  24064532.674    38939837.186  
  20737644.630     1571189.703  
  20797383.790   -44759860.028  
  20762202.209   -59717320.454  
  21970584.871   -64710924.833  
 18  6 25  3  6 50.0000000  0  9G27G30G11G28G09G18G07G08G01
  22643878.658    11588121.055  
  22625255.817    -3349136.322  
  20973835.237    -1380043.666  
  24612451.608    29551539.845  
  24066899.776    38952264.231  
  20735684.060     1560883.453  
  20796044.955   -44766902.911  
  20763458.488   -59710720.758  
  21967476.990   -64727255.168  
 18  6 25  3  6 55.0000000  0  9G27G30G11G28G09G18G07G08G01
  22646550.281    11602166.686  
  22622588.537    -3363150.145  
  20971778.673    -1390854.428  
  24610414.934    29540837.134  
  24069266.612    38964692.897  
  20733724.799     1550591.920  
  20794707.285   -44773931.051  
  20764715.933   -59704114.093  
  21964372.707   -64743576.706  
 18  6 25  3  7  0.0000000  0  9G27G30G11G28G09G18G07G08G01
  22649223.717    11616213.624  
  22619922.212    -3377155.017  
  20969722.635    -1401652.849  
  24608374.922    29530132.635  
  24071633.832    38977123.233  
  20731769.355     1540314.997  
  20793372.716   -44780944.497  
  20765974.763   -59697500.453  
  21961268.235   -64759889.525  
 18  6 25  3  7  5.0000000  0  9G27G30G11G28G09G18G07G08G01
  22651896.875    11630261.892  
  22617259.042    -3391150.953  
  20967669.324    -1412438.903  
  24606338.925    29519426.398  
  24073997.911    38989555.257  
  20729817.066     1530052.799  
  20792041.017   -44787943.186  
  20767233.600   -59690879.872  
  21958164.342   -64776193.564  
 18  6 25  3  7 10.0000000  0  9G27G30G11G28G09G18G07G08G01
  22654569.545    11644311.522  
  22614596.530    -3405137.911  
  20965620.819    -1423212.492  
  24604301.581    29508718.432  
  24076359.643    39001988.951  
  20727867.724     1519805.485  
  20790711.407   -44794927.056  
  20768494.526   -59684252.234  
  21955062.252   -64792488.756  
 18  6 25  3  7 15.0000000  0  9G27G30G11G28G09G18G07G08G01
  22657242.929    11658362.470  
  22611939.454    -3419115.963  
  20963573.314    -1433973.723  
  24602265.381    29498008.806  
  24078723.376    39014424.339  
  20725919.525     1509572.817  
  20789386.230   -44801896.148  
  20769757.882   -59677617.677  
  21951965.740   -64808775.166  
 18  6 25  3  7 20.0000000  0  9G27G30G11G28G09G18G07G08G01
  22659917.963    11672414.740  
  22609280.450    -3433084.944  
  20961527.746    -1444722.469  
  24600226.538    29487297.411  
  24081084.609    39026861.286  
  20723973.692     1499355.018  
  20788062.417   -44808850.422  
  20771021.886   -59670976.096  
  21948867.158   -64825052.700  
 18  6 25  3  7 25.0000000  0  9G27G30G11G28G09G18G07G08G01
  22662592.719    11686468.270  
  22606623.888    -3447045.027  
  20959484.618    -1455458.885  
  24598188.132    29476584.287  
  24083449.571    39039299.854  
  20722033.590     1489151.897  
  20786741.474   -44815790.007  
  20772286.615   -59664327.619  
  21945772.162   -64841321.469  
 18  6 25  3  7 30.0000000  0  9G27G30G11G28G09G18G07G08G01
  22665267.161    11700523.147  
  22603969.301    -3460996.017  
  20957444.468    -1466182.821  
  24596149.842    29465869.460  
  24085815.507    39051748.509  
  20720093.318     1478963.612  
  20785423.795   -44822714.680  
  20773554.034   -59657672.043  
  21942677.138   -64857581.272  
 18  6 25  3  7 35.0000000  0  9G27G30G11G28G09G18G07G08G01
  22667942.599    11714579.348  
  22601315.566    -3474937.961  
  20955406.315    -1476894.301  
  24594111.403    29455152.939  
  24088181.008    39064189.765  
  20718158.621     1468790.206  
  20784109.687   -44829624.518  
  20774821.304   -59651009.535  
  21939585.113   -64873832.225  
 18  6 25  3  7 40.0000000  0  9G27G30G11G28G09G18G07G08G01
  22670616.879    11728636.847  
  22598663.965    -3488870.871  
  20953369.580    -1487593.343  
  24592070.947    29444434.663  
  24090543.920    39076633.099  
  20716225.198     1458631.534  
  20782796.854   -44836519.562  
  20776089.993   -59644340.156  
  21936493.218   -64890074.200  
 18  6 25  3  7 45.0000000  0  9G27G30G11G28G09G18G07G08G01
  22673293.334    11742695.628  
  22596015.540    -3502794.744  
  20951335.877    -1498279.879  
  24590032.093    29433714.716  
  24092901.423    39089078.118  
  20714295.809     1448487.735  
  20781488.342   -44843399.732  
  20777361.141   -59637663.845  
  21933404.356   -64906307.358  
 18  6 25  3  7 50.0000000  0  8G27G30G11G28G18G07G08G01
  22675965.759    11756755.680  
  22593367.807    -3516709.602  
  20949303.726    -1508953.927  
  24587990.355    29422992.972  
  20712366.112     1438358.718  
  20780182.239   -44850265.083  
  20778633.412   -59630980.534  
  21930318.333   -64922531.565  
 18  6 25  3  7 55.0000000  0  8G27G30G11G28G18G07G08G01
  22678644.066    11770817.099  
  22590720.090    -3530615.221  
  20947275.167    -1519615.445  
  24585949.777    29412269.628  
  20710442.153     1428244.681  
  20778878.870   -44857115.450  
  20779905.125   -59624290.259  
  21927231.037   -64938746.733  
 18  6 25  3  8  0.0000000  0  8G27G30G11G28G18G07G08G01
  22681320.331    11784879.589  
  22588074.910    -3544511.935  
  20945249.146    -1530264.566  
  24583908.445    29401544.430  
  20708521.305     1418145.310  
  20777576.894   -44863951.062  
  20781180.378   -59617593.242  
  21924149.284   -64954953.129  
 18  6 25  3  8  5.0000000  0  8G27G30G11G28G18G07G08G01
  22683996.331    11798943.478  
  22585432.325    -3558399.412  
  20943225.291    -1540901.103  
  24581865.702    29390817.591  
  20706602.479     1408060.916  
  20776279.231   -44870771.731  
  20782455.364   -59610889.194  
  21921065.547   -64971150.469  
 18  6 25  3  8 10.0000000  0  8G27G30G11G28G18G07G08G01
  22686671.900    11813008.613  
  22582793.032    -3572277.777  
  20941203.439    -1551525.100  
  24579826.535    29380089.065  
  20704685.371     1397991.504  
  20774983.141   -44877577.462  
  20783732.926   -59604178.185  
  21917985.530   -64987338.729  
 18  6 25  3  8 15.0000000  0  8G27G30G11G28G18G07G08G01
  22689349.323    11827074.940  
  22580155.162    -3586147.142  
  20939184.299    -1562136.701  
  24577782.640    29369358.667  
  20702771.975     1387936.871  
  20773690.478   -44884368.399  
  20785010.909   -59597460.414  
  21914907.366   -65003518.125  
 18  6 25  3  8 20.0000000  0  8G27G30G11G28G18G07G08G01
  22692026.469    11841142.516  
  22577516.872    -3600007.333  
  20937167.314    -1572735.794  
  24575741.330    29358626.539  
  20700861.594     1377897.106  
  20772401.974   -44891144.443  
  20786290.763   -59590735.714  
  21911829.498   -65019688.479  
 18  6 25  3  8 25.0000000  0  8G27G30G11G28G18G07G08G01
  22694702.494    11855211.354  
  22574882.040    -3613858.341  
  20935152.500    -1583322.341  
  24573700.902    29347892.759  
  20698953.955     1367872.305  
  20771116.500   -44897905.603  
  20787571.069   -59584004.110  
  21908754.516   -65035849.806  
 18  6 25  3  8 30.0000000  0  8G27G30G11G28G18G07G08G01
  22697381.026    11869281.128  
  22572247.999    -3627700.468  
  20933140.336    -1593896.579  
  24571658.116    29337156.905  
  20697048.824     1357862.128  
  20769831.671   -44904652.078  
  20788853.882   -59577265.985  
  21905681.182   -65052002.338  
 18  6 25  3  8 35.0000000  0  8G27G30G11G28G18G07G08G01
  22700057.888    11883352.245  
  22569614.147    -3641533.234  
  20931130.651    -1604458.179  
  24569616.952    29326419.504  
  20695147.174     1347867.023  
  20768551.470   -44911383.475  
  20790138.317   -59570520.837  
  21902607.466   -65068145.670  
 18  6 25  3  8 40.0000000  0  8G27G30G11G28G18G07G08G01
  22702736.714    11897424.635  
  22566984.120    -3655356.826  
  20929123.073    -1615007.210  
  24567572.313    29315680.407  
  20693248.632     1337886.946  
  20767271.944   -44918099.911  
  20791422.283   -59563768.803  
  21899538.575   -65084279.948  
 18  6 25  3  8 45.0000000  0  9G27G30G11G28G09G18G07G08G01
  22705414.146    11911498.126  
  22564354.702    -3669171.251  
  20927118.824    -1625543.696  
  24565527.855    29304939.527  
  24121478.993    40098255.854  
  20691351.988     1327921.710  
  20765997.892   -44924801.414  
  20792709.005   -59557009.988  
  21896469.579   -65100405.179  
 18  6 25  3  8 50.0000000  0  9G27G30G11G28G09G18G07G08G01
  22708093.184    11925573.020  
  22561728.750    -3682976.319  
  20925115.179    -1636067.486  
  24563482.427    29294197.101  
  24123840.510    40110719.859  
  20689457.951     1317971.701  
  20764725.018   -44931487.828  
  20793996.045   -59550244.266  
  21893402.332   -65116521.142  
 18  6 25  3  8 55.0000000  0  9G27G30G11G28G09G18G07G08G01
  22710772.010    11939648.918  
  22559102.156    -3696772.368  
  20923115.900    -1646578.936  
  24561438.074    29283452.756  
  24126214.120    40123185.070  
  20687566.421     1308036.448  
  20763455.079   -44938159.454  
  20795284.589   -59543471.877  
  21890335.015   -65132628.193  
 18  6 25  3  9  0.0000000  0  9G27G30G11G28G09G18G07G08G01
  22713450.184    11953726.055  
  22556478.632    -3710559.068  
  20921116.686    -1657077.682  
  24559391.210    29272706.753  
  24128587.366    40135651.714  
  20685679.534     1298116.238  
  20762187.922   -44944816.040  
  20796575.344   -59536692.569  
  21887274.344   -65148726.057  
 18  6 25  3  9  5.0000000  0  9G27G30G11G28G09G18G07G08G01
  22716126.104    11967804.318  
  22553856.145    -3724336.554  
  20919121.943    -1667563.954  
  24557347.530    29261958.981  
  24130960.218    40148119.682  
  20683795.258     1288210.991  
  20760924.665   -44951457.668  
  20797865.848   -59529906.443  
  21884214.139   -65164814.774  
 18  6 25  3  9 10.0000000  0  9G27G30G11G28G09G18G07G08G01
  22718806.882    11981883.775  
  22551237.655    -3738104.782  
  20917129.338    -1678037.580  
  24555299.548    29251209.543  
  24133335.637    40160589.024  
  20681913.120     1278320.775  
  20759663.976   -44958084.277  
  20799158.920   -59523113.458  
  21881152.208   -65180894.354  
 18  6 25  3  9 15.0000000  0  9G27G30G11G28G09G18G07G08G01
  22721487.994    11995964.307  
  22548620.074    -3751863.796  
  20915138.213    -1688498.687  
  24553253.190    29240458.234  
  24135715.111    40173059.616  
  20680033.320     1268445.486  
  20758405.910   -44964695.957  
  20800452.756   -59516313.829  
  21878092.902   -65196964.839  
 18  6 25  3  9 20.0000000  0  9G27G30G11G28G09G18G07G08G01
  22724166.350    12010045.988  
  22546002.884    -3765613.577  
  20913150.199    -1698947.286  
  24551209.513    29229705.139  
  24138096.409    40185531.375  
  20678157.204     1258585.167  
  20757150.527   -44971292.691  
  20801747.843   -59509507.520  
  21875038.423   -65213026.219  
 18  6 25  3  9 25.0000000  0  9G27G30G11G28G09G18G07G08G01
  22726848.251    12024128.881  
  22543386.949    -3779354.008  
  20911165.156    -1709383.153  
  24549162.368    29218950.433  
  24140467.227    40198004.646  
  20676284.059     1248740.029  
  20755898.258   -44977874.298  
  20803044.327   -59502694.324  
  21871983.482   -65229078.267  
 18  6 25  3  9 30.0000000  0  9G27G30G11G28G09G18G07G08G01
  22729527.704    12038212.846  
  22540775.722    -3793085.145  
  20909181.529    -1719806.522  
  24547115.209    29208194.020  
  24142839.033    40210479.042  
  20674412.902     1238909.788  
  20754647.977   -44984440.941  
  20804342.371   -59495874.333  
  21868930.816   -65245121.203  
 18  6 25  3  9 35.0000000  0  9G27G30G11G28G09G18G07G08G01
  22732206.605    12052297.925  
  22538163.370    -3806807.021  
  20907200.356    -1730217.293  
  24545068.643    29197435.750  
  24145204.134    40222954.656  
  20672546.060     1229094.619  
  20753401.867   -44990992.570  
  20805642.009   -59489047.686  
  21865878.028   -65261154.949  
 18  6 25  3  9 40.0000000  0  9G27G30G11G28G09G18G07G08G01
  22734888.152    12066384.011  
  22535554.809    -3820519.630  
  20905219.682    -1740615.513  
  24543022.576    29186675.666  
  24147574.742    40235431.483  
  20670680.432     1219294.454  
  20752158.260   -44997529.225  
  20806941.861   -59482214.308  
  21862829.602   -65277179.528  
 18  6 25  3  9 45.0000000  0  9G27G30G11G28G09G18G07G08G01
  22737568.272    12080471.288  
  22532947.682    -3834222.876  
  20903245.308    -1751001.059  
  24540974.366    29175913.880  
  24149947.643    40247909.584  
  20668818.528     1209509.367  
  20750915.944   -45004050.822  
  20808242.431   -59475374.164  
  21859781.179   -65293194.797  
 18  6 25  3  9 50.0000000  0  9G27G30G11G28G09G18G07G08G01
  22740248.994    12094559.627  
  22530340.013    -3847916.783  
  20901269.962    -1761374.003  
  24538925.471    29165150.310  
  24152305.550    40260388.795  
  20666960.374     1199739.423  
  20749678.953   -45010557.382  
  20809546.037   -59468527.349  
  21856736.079   -65309200.874  
 18  6 25  3  9 55.0000000  0  9G27G30G11G28G09G18G07G08G01
  22742931.380    12108649.052  
  22527736.297    -3861601.343  
  20899300.716    -1771734.329  
  24536875.950    29154385.051  
  24154649.380    40272869.232  
  20665103.455     1189984.533  
  20748443.624   -45017048.881  
  20810850.161   -59461673.812  
  21853691.782   -65325197.628  
 18  6 25  3 10  0.0000000  0  9G27G30G11G28G09G18G07G08G01
  22745611.627    12122739.659  
  22525133.877    -3875276.468  
  20897329.331    -1782081.974  
  24534829.728    29143618.114  
  24156984.919    40285350.924  
  20663249.405     1180244.743  
  20747210.451   -45023525.267  
  20812156.583   -59454813.561  
  21850650.070   -65341185.098  
 18  6 25  3 10  5.0000000  0  9G27G30G11G28G09G18G07G08G01
  22748292.523    12136831.424  
  22522533.822    -3888942.104  
  20895363.316    -1792416.831  
  24532778.001    29132849.473  
  24159353.874    40297833.914  
  20661399.725     1170520.130  
  20745981.789   -45029986.453  
  20813463.510   -59447946.486  
  21847609.435   -65357163.192  
 18  6 25  3 10 10.0000000  0  9G27G30G11G28G09G18G07G08G01
  22750975.701    12150924.078  
  22519936.335    -3902598.565  
  20893399.727    -1802739.213  
  24530728.700    29122078.959  
  24161727.687    40310317.849  
  20659550.609     1160810.476  
  20744753.835   -45036432.756  
  20814770.573   -59441072.934  
  21844570.796   -65373132.135  
 18  6 25  3 10 15.0000000  0  9G27G30G11G28G09G18G07G08G01
  22753656.943    12165017.868  
  22517338.917    -3916245.501  
  20891436.635    -1813048.834  
  24528678.178    29111306.801  
  24164106.433    40322803.032  
  20657704.995     1151116.083  
  20743531.100   -45042863.865  
  20816080.136   -59434192.579  
  21841530.937   -65389091.656  
 18  6 25  3 10 20.0000000  0  9G27G30G11G28G09G18G07G08G01
  22756338.389    12179112.851  
  22514742.417    -3929882.912  
  20889478.325    -1823345.658  
  24526628.147    29100533.001  
  24166480.661    40335289.480  
  20655865.023     1141436.954  
  20742309.572   -45049279.637  
  20817390.762   -59427305.542  
  21838498.008   -65405041.728  
 18  6 25  3 10 25.0000000  0  9G27G30G11G28G09G18G07G08G01
  22759022.843    12193208.720  
  22512149.498    -3943511.074  
  20887519.589    -1833630.027  
  24524575.400    29089757.269  
  24168860.186    40347776.867  
  20654026.484     1131772.862  
  20741092.481   -45055680.504  
  20818702.105   -59420411.925  
  21835464.651   -65420982.641  
 18  6 25  3 10 30.0000000  0  9G27G30G11G28G09G18G07G08G01
  22761704.482    12207305.594  
  22509556.626    -3957129.808  
  20885565.766    -1843901.746  
  24522525.705    29078979.796  
  24171235.895    40360265.279  
  20652189.423     1122123.722  
  20739877.441   -45062066.360  
  20820015.785   -59413511.725  
  21832434.347   -65436914.196  
 18  6 25  3 10 35.0000000  0  9G27G30G11G28G09G18G07G08G01
  22764387.053    12221403.609  
  22506968.406    -3970738.966  
  20883614.878    -1854160.586  
  24520472.649    29068200.699  
  24173613.108    40372754.955  
  20650356.157     1112489.982  
  20738664.907   -45068436.917  
  20821330.970   -59406604.686  
  21829402.256   -65452836.273  
 18  6 25  3 10 40.0000000  0  9G27G30G11G28G09G18G07G08G01
  22767069.556    12235502.695  
  22504380.690    -3984338.666  
  20881663.920    -1864406.724  
  24518421.813    29057419.844  
  24175989.251    40385245.695  
  20648526.398     1102871.387  
  20737454.451   -45074792.391  
  20822645.657   -59399690.973  
  21826374.962   -65468748.928  
 18  6 25  3 10 45.0000000  0  9G27G30G11G28G09G18G07G08G01
  22769754.250    12249602.761  
  22501795.166    -3997928.933  
  20879717.159    -1874640.244  
  24516371.167    29046637.275  
  24178365.010    40397737.471  
  20646698.689     1093267.979  
  20736248.333   -45081132.755  
  20823962.250   -59392770.692  
  21823349.716   -65484652.242  
 18  6 25  3 10 50.0000000  0  9G27G30G11G28G09G18G07G08G01
  22772436.707    12263703.882  
  22499208.406    -4011509.632  
  20877772.452    -1884861.062  
  24514321.002    29035852.901  
  24180740.534    40410230.334  
  20644873.035     1083679.743  
  20735045.271   -45087457.949  
  20825280.468   -59385843.704  
  21820325.810   -65500546.075  
 18  6 25  3 10 55.0000000  0  9G27G30G11G28G09G18G07G08G01
  22775119.521    12277806.115  
  22496626.439    -4025080.728  
  20875829.820    -1895069.007  
  24512268.189    29025066.893  
  24183120.995    40422724.331  
  20643051.745     1074106.870  
  20733843.712   -45093767.871  
  20826599.474   -59378909.951  
  21817301.689   -65516430.377  
 18  6 25  3 11  0.0000000  0  9G27G30G11G28G09G18G07G08G01
  22777804.213    12291909.115  
  22494045.634    -4038642.567  
  20873888.922    -1905264.408  
  24510215.536    29014278.934  
  24185500.329    40435219.110  
  20641232.761     1064548.959  
  20732645.461   -45100062.860  
  20827920.213   -59371969.918  
  21814281.163   -65532305.462  
 18  6 25  3 11  5.0000000  0  9G27G30G11G28G09G18G07G08G01
  22780489.770    12306013.109  
  22491468.127    -4052194.902  
  20871952.323    -1915447.142  
  24508163.176    29003489.139  
  24187875.948    40447714.921  
  20639416.503     1055006.258  
  20731451.367   -45106342.701  
  20829242.676   -59365023.384  
  21811261.358   -65548171.099  
 18  6 25  3 11 10.0000000  0  9G27G30G11G28G09G18G07G08G01
  22783171.268    12320118.056  
  22488890.997    -4065737.703  
  20870016.532    -1925617.114  
  24506109.906    28992697.638  
  24190255.952    40460211.692  
  20637604.772     1045478.813  
  20730258.508   -45112607.367  
  20830565.803   -59358070.203  
  21808244.793   -65564027.301  
 18  6 25  3 11 15.0000000  0  9G27G30G11G28G09G18G07G08G01
  22785856.995    12334224.122  
  22486313.804    -4079270.842  
  20868084.254    -1935774.281  
  24504052.565    28981904.575  
  24192634.175    40472709.528  
  20635793.550     1035966.666  
  20729069.736   -45118856.717  
  20831889.581   -59351110.278  
  21805227.879   -65579873.840  
 18  6 25  3 11 20.0000000  0  9G27G30G11G28G09G18G07G08G01
  22788540.943    12348331.243  
  22483741.126    -4092794.300  
  20866152.199    -1945918.586  
  24501998.310    28971109.786  
  24195013.909    40485208.447  
  20633987.988     1026469.896  
  20727883.333   -45125090.817  
  20833215.157   -59344143.652  
  21802215.336   -65595710.849  
 18  6 25  3 11 25.0000000  0  9G27G30G11G28G09G18G07G08G01
  22791225.667    12362439.130  
  22481169.225    -4106308.339  
  20864224.927    -1956050.336  
  24499939.107    28960313.126  
  24197391.271    40497708.137  
  20632182.487     1016988.238  
  20726700.425   -45131309.857  
  20834543.656   -59337170.707  
  21799203.571   -65611538.470  
 18  6 25  3 11 30.0000000  0  9G27G30G11G28G09G18G07G08G01
  22793909.461    12376548.207  
  22478599.829    -4119812.656  
  20862300.446    -1966169.108  
  24497886.702    28949514.911  
  24199768.992    40510208.980  
  20630381.924     1007522.075  
  20725520.022   -45137513.472  
  20835871.225   -59330191.001  
  21796193.738   -65627356.375  
 18  6 25  3 11 35.0000000  0  9G27G30G11G28G09G18G07G08G01
  22796594.479    12390657.955  
  22476033.087    -4133307.630  
  20860376.902    -1976275.440  
  24495835.950    28938714.618  
  24202148.079    40522710.381  
  20628583.729      998070.842  
  20724341.702   -45143702.167  
  20837199.445   -59323205.050  
  21793184.270   -65643165.019  
 18  6 25  3 11 40.0000000  0  9G27G30G11G28G09G18G07G08G01
  22799279.731    12404768.747  
  22473466.436    -4146792.876  
  20858455.882    -1986368.925  
  24493781.711    28927912.642  
  24204527.973    40535212.940  
  20626787.485      988635.049  
  20723166.047   -45149875.533  
  20838530.761   -59316212.447  
  21790178.756   -65658963.999  
 18  6 25  3 11 45.0000000  0  9G27G30G11G28G09G18G07G08G01
  22801965.035    12418880.494  
  22470900.839    -4160268.500  
  20856537.061    -1996449.571  
  24491725.522    28917109.031  
  24206907.347    40547716.317  
  20624994.441      979214.618  
  20721995.454   -45156033.624  
  20839862.559   -59309213.296  
  21787175.012   -65674753.395  
 18  6 25  3 11 50.0000000  0  9G27G30G11G28G09G18G07G08G01
  22804651.669    12432993.086  
  22468341.008    -4173734.587  
  20854622.431    -2006517.547  
  24489668.658    28906303.532  
  24209287.335    40560220.521  
  20623204.731      969809.337  
  20720825.903   -45162176.551  
  20841195.973   -59302207.708  
  21784170.880   -65690533.307  
 18  6 25  3 11 55.0000000  0  9G27G30G11G28G09G18G07G08G01
  22807337.305    12447106.674  
  22465779.033    -4187190.948  
  20852708.376    -2016572.625  
  24487613.658    28895496.377  
  24211665.466    40572725.649  
  20621417.885      960419.527  
  20719659.647   -45168304.151  
  20842530.391   -59295195.483  
  21781170.901   -65706303.526  
 18  6 25  3 12  0.0000000  0  9G27G30G11G28G09G18G07G08G01
  22810023.247    12461221.151  
  22463220.943    -4200637.712  
  20850796.918    -2026614.969  
  24485555.531    28884687.404  
  24214045.764    40585231.550  
  20619632.777      951044.933  
  20718497.991   -45174416.556  
  20843866.547   -59288176.817  
  21778171.372   -65722064.219  
 18  6 25  3 12  5.0000000  0  9G27G30G11G28G09G18G07G08G01
  22812708.045    12475336.524  
  22460661.994    -4214074.775  
  20848888.895    -2036644.477  
  24483492.968    28873876.775  
  24216424.631    40597738.373  
  20617852.535      941685.713  
  20717336.621   -45180513.701  
  20845203.276   -59281151.568  
  21775173.846   -65737815.260  
 18  6 25  3 12 10.0000000  0  9G27G30G11G28G09G18G07G08G01
  22815396.756    12489452.810  
  22458107.389    -4227502.168  
  20846983.211    -2046661.156  
  24481429.597    28863064.578  
  24218803.263    40610246.041  
  20616074.918      932341.873  
  20716177.877   -45186595.516  
  20846541.629   -59274119.852  
  21772178.088   -65753556.639  
 18  6 25  3 12 15.0000000  0  9G27G30G11G28G09G18G07G08G01
  22818082.296    12503570.059  
  22455554.475    -4240919.831  
  20845078.218    -2056665.033  
  24479367.203    28852250.396  
  24221181.726    40622754.575  
  20614300.425      923013.471  
  20715025.261   -45192662.046  
  20847880.101   -59267081.646  
  21769184.881   -65769288.344  
 18  6 25  3 12 20.0000000  0  9G27G30G11G28G09G18G07G08G01
  22820768.334    12517688.104  
  22453003.064    -4254327.871  
  20843177.445    -2066656.160  
  24477310.174    28841434.529  
  24223561.978    40635263.772  
  20612528.721      913700.232  
  20713873.288   -45198713.371  
  20849221.219   -59260037.071  
  21766193.462   -65785010.451  
 18  6 25  3 12 25.0000000  0  9G27G30G11G28G09G18G07G08G01
  22823455.252    12531807.140  
  22450452.245    -4267726.058  
  20841278.982    -2076634.329  
  24475266.044    28830616.979  
  24225941.963    40647773.900  
  20610759.756      904402.606  
  20712725.629   -45204749.238  
  20850561.928   -59252985.895  
  21763202.635   -65800722.778  
 18  6 25  3 12 30.0000000  0  9G27G30G11G28G09G18G07G08G01
  22826141.529    12545927.100  
  22447905.650    -4281114.497  
  20839382.598    -2086599.666  
  24473210.397    28819797.650  
  24228322.453    40660284.841  
  20608990.866      895120.363  
  20711580.334   -45210769.784  
  20851904.715   -59245928.239  
  21760214.745   -65816425.399  
 18  6 25  3 12 35.0000000  0  9G27G30G11G28G09G18G07G08G01
  22828829.461    12560047.890  
  22445359.852    -4294493.288  
  20837488.726    -2096552.243  
  24471149.108    28808976.531  
  24230705.026    40672796.418  
  20607228.353      885853.455  
  20710436.550   -45216775.052  
  20853250.301   -59238864.209  
  21757229.511   -65832118.362  
 18  6 25  3 12 40.0000000  0  9G27G30G11G28G09G18G07G08G01
  22831517.668    12574169.534  
  22442816.905    -4307862.240  
  20835597.706    -2106491.879  
  24469090.384    28798153.591  
  24233088.162    40685308.793  
  20605468.691      876602.038  
  20709296.476   -45222764.818  
  20854595.162   -59231793.607  
  21754244.267   -65847801.551  
 18  6 25  3 12 45.0000000  0  9G27G30G11G28G09G18G07G08G01
  22834202.682    12588292.040  
  22440273.483    -4321221.471  
  20833708.357    -2116418.678  
  24467028.896    28787328.984  
  24235467.531    40697821.903  
  20603710.844      867365.945  
  20708158.503   -45228739.343  
  20855941.694   -59224716.587  
  21751263.413   -65863474.957  
 18  6 25  3 12 50.0000000  0  9G27G30G11G28G09G18G07G08G01
  22836892.213    12602415.378  
  22437734.291    -4334570.982  
  20831821.522    -2126332.589  
  24464970.493    28776502.518  
  24237852.133    40710335.624  
  20601956.083      858145.301  
  20707027.193   -45234698.656  
  20857289.594   -59217633.304  
  21748281.209   -65879138.786  
 18  6 25  3 12 55.0000000  0  9G27G30G11G28G09G18G07G08G01
  22839579.967    12616539.410  
  22435195.899    -4347910.757  
  20829937.489    -2136233.695  
  24462905.163    28765674.311  
  24240230.809    40722850.037  
  20600205.125      848939.958  
  20705895.108   -45240642.677  
  20858639.296   -59210543.678  
  21745301.379   -65894792.935  
 18  6 25  3 13  0.0000000  0  9G27G30G11G28G09G18G07G08G01
  22842267.282    12630664.447  
  22432657.784    -4361240.684  
  20828055.736    -2146121.868  
  24460841.827    28754844.447  
  24242614.483    40735365.214  
  20598455.733      839750.206  
  20704767.021   -45246571.269  
  20859988.845   -59203447.527  
  21742326.404   -65910437.146  
 18  6 25  3 13  5.0000000  0  9G27G30G11G28G09G18G07G08G01
  22844955.705    12644790.185  
  22430125.927    -4374560.849  
  20826175.949    -2155997.262  
  24458778.024    28744012.772  
  24244994.972    40747880.995  
  20596710.023      830575.749  
  20703641.471   -45252484.523  
  20861340.646   -59196345.033  
  21739350.819   -65926071.654  
 18  6 25  3 13 10.0000000  0  9G27G30G11G28G09G18G07G08G01
  22847643.724    12658917.011  
  22427589.804    -4387870.964  
  20824299.623    -2165859.571  
  24456738.429    28733179.625  
  24247377.061    40760397.677  
  20594966.486      821417.093  
  20702519.096   -45258382.127  
  20862692.902   -59189235.837  
  21736376.262   -65941696.134  
 18  6 25  3 13 15.0000000  0  9G27G30G11G28G09G18G07G08G01
  22850331.572    12673044.608  
  22425057.801    -4401171.235  
  20822426.129    -2175708.975  
  24454685.212    28722344.613  
  24249759.550    40772914.977  
  20593227.785      812273.883  
  20701400.269   -45264264.432  
  20864047.276   -59182120.271  
  21733405.110   -65957310.805  
 18  6 25  3 13 20.0000000  0  9G27G30G11G28G09G18G07G08G01
  22853021.799    12687172.933  
  22422531.326    -4414461.759  
  20820553.870    -2185545.638  
  24452626.218    28711507.771  
  24252141.844    40785432.813  
  20591490.175      803145.993  
  20700283.250   -45270131.473  
  20865402.599   -59174998.507  
  21730435.050   -65972915.781  
 18  6 25  3 13 25.0000000  0  9G27G30G11G28G09G18G07G08G01
  22855711.185    12701302.071  
  22420002.293    -4427742.423  
  20818683.489    -2195369.319  
  24450550.500    28700669.103  
  24254525.013    40797951.331  
  20589756.733      794033.679  
  20699169.252   -45275983.048  
  20866759.799   -59167870.357  
  21727467.583   -65988510.881  
 18  6 25  3 13 30.0000000  0  9G27G30G11G28G09G18G07G08G01
  22858396.821    12715431.977  
  22417477.093    -4441013.274  
  20816816.512    -2205180.158  
  24448476.470    28689828.730  
  24256907.437    40810470.369  
  20588024.692      784936.805  
  20698059.518   -45281819.277  
  20868117.542   -59160735.868  
  21724501.088   -66004096.168  
 18  6 25  3 13 35.0000000  0  9G27G30G11G28G09G18G07G08G01
  22861087.458    12729562.783  
  22414955.463    -4454274.117  
  20814951.388    -2214977.987  
  24446408.012    28678986.650  
  24259289.711    40822990.183  
  20586297.222      775855.581  
  20696951.494   -45287640.006  
  20869476.708   -59153594.908  
  21721538.592   -66019671.439  
 18  6 25  3 13 40.0000000  0  9G27G30G11G28G09G18G07G08G01
  22863777.032    12743694.310  
  22412430.768    -4467525.140  
  20813090.496    -2224762.983  
  24444358.238    28668142.659  
  24261672.496    40835510.446  
  20584570.694      766789.764  
  20695847.415   -45293445.396  
  20870835.384   -59146447.761  
  21718575.463   -66035236.924  
 18  6 25  3 13 45.0000000  0  9G27G30G11G28G09G18G07G08G01
  22866465.886    12757826.450  
  22409910.646    -4480766.390  
  20811230.601    -2234535.207  
  24442312.181    28657296.907  
  24264055.705    40848031.120  
  20582850.313      757739.352  
  20694745.763   -45299235.513  
  20872198.492   -59139294.415  
  21715615.477   -66050792.667  
 18  6 25  3 13 50.0000000  0  9G27G30G11G28G09G18G07G08G01
  22869155.341    12771959.632  
  22407395.992    -4493997.445  
  20809373.883    -2244294.214  
  24440245.833    28646449.682  
  24266437.513    40860552.643  
  20581130.248      748704.811  
  20693645.716   -45305009.918  
  20873560.054   -59132134.410  
  21712658.525   -66066338.216  
 18  6 25  3 13 55.0000000  0  8G27G30G11G09G18G07G08G01
  22871843.904    12786093.638  
  22404880.159    -4507218.551  
  20807519.278    -2254040.215  
  24268822.149    40873074.788  
  20579413.583      739685.760  
  20692549.641   -45310768.790  
  20874923.443   -59124968.038  
  21709702.541   -66081873.774  
 18  6 25  3 14  0.0000000  0  8G27G30G11G09G18G07G08G01
  22874534.473    12800228.264  
  22402365.472    -4520429.856  
  20805667.107    -2263773.453  
  24271203.209    40885597.266  
  20577700.784      730682.237  
  20691457.574   -45316512.356  
  20876288.265   -59117795.389  
  21706746.130   -66097399.540  
 18  6 25  3 14  5.0000000  0  8G27G30G11G09G18G07G08G01
  22877224.215    12814363.673  
  22399852.392    -4533631.095  
  20803817.687    -2273493.644  
  24273585.733    40898120.366  
  20575990.020      721694.348  
  20690367.400   -45322240.387  
  20877654.121   -59110616.423  
  21703794.759   -66112915.301  
 18  6 25  3 14 10.0000000  0  8G27G30G11G09G18G07G08G01
  22879913.916    12828499.841  
  22397342.563    -4546822.456  
  20801970.516    -2283200.920  
  24275972.080    40910643.879  
  20574283.366      712721.904  
  20689280.047   -45327952.973  
  20879022.082   -59103431.227  
  21700843.491   -66128421.092  
 18  6 25  3 14 15.0000000  0  8G27G30G11G09G18G07G08G01
  22882604.255    12842636.829  
  22394833.656    -4560003.700  
  20800125.986    -2292895.129  
  24278352.768    40923168.030  
  20572578.636      703765.172  
  20688195.907   -45333649.966  
  20880389.679   -59096239.615  
  21697896.008   -66143916.831  
 18  6 25  3 14 20.0000000  0  8G27G30G11G09G18G07G08G01
  22885293.685    12856774.454  
  22392326.846    -4573175.072  
  20798283.408    -2302576.473  
  24280737.126    40935692.549  
  20570876.289      694823.965  
  20687114.865   -45339331.591  
  20881759.944   -59089041.852  
  21694949.477   -66159402.675  
 18  6 25  3 14 25.0000000  0  8G27G30G11G09G18G07G08G01
  22887983.774    12870912.908  
  22389824.559    -4586336.252  
  20796443.779    -2312244.655  
  24283120.569    40948217.674  
  20569178.177      685898.557  
  20686036.628   -45344997.583  
  20883130.869   -59081837.602  
  21692003.747   -66174878.357  
 18  6 25  3 14 30.0000000  0  9G27G30G11G28G09G18G07G08G01
  22890677.225    12885051.931  
  22387320.911    -4599487.659  
  20794605.938    -2321900.068  
  24423706.696    52252015.915  
  24285503.796    40960743.058  
  20567482.856      676988.514  
  20684962.182   -45350648.270  
  20884503.295   -59074627.286  
  21689059.662   -66190344.206  
 18  6 25  3 14 35.0000000  0  9G27G30G11G28G09G18G07G08G01
  22893366.110    12899191.576  
  22384821.140    -4612629.063  
  20792771.544    -2331542.575  
  24421635.342    52241152.824  
  24287886.751    40973268.796  
  20565791.125      668094.018  
  20683888.751   -45356283.566  
  20885875.734   -59067410.836  
  21686120.599   -66205800.086  
 18  6 25  3 14 40.0000000  0  9G27G30G11G28G09G18G07G08G01
  22896055.806    12913331.831  
  22382322.323    -4625760.561  
  20790939.393    -2341172.141  
  24419562.224    52230287.818  
  24290270.230    40985794.861  
  20564100.920      659215.067  
  20682819.566   -45361903.462  
  20887249.843   -59060188.293  
  21683181.345   -66221246.010  
 18  6 25  3 14 45.0000000  0  9G27G30G11G28G09G18G07G08G01
  22898746.717    12927472.971  
  22379824.721    -4638881.852  
  20789109.029    -2350788.579  
  24417490.464    52219421.364  
  24292654.925    40998321.499  
  20562415.508      650351.939  
  20681753.599   -45367507.649  
  20888626.741   -59052959.273  
  21680243.735   -66236681.743  
 18  6 25  3 14 50.0000000  0  9G27G30G11G28G09G18G07G08G01
  22901439.608    12941614.790  
  22377328.812    -4651993.072  
  20787281.645    -2360391.964  
  24415417.821    52208553.141  
  24295038.164    41010848.553  
  20560730.644      641504.467  
  20680689.754   -45373096.315  
  20890003.329   -59045723.977  
  21677307.104   -66252107.379  
 18  6 25  3 14 55.0000000  0  9G27G30G11G28G09G18G07G08G01
  22904131.107    12955757.464  
  22374836.807    -4665094.057  
  20785457.736    -2369982.199  
  24413348.223    52197683.261  
  24297422.016    41023376.131  
  20559050.686      632672.793  
  20679629.669   -45378669.320  
  20891380.816   -59038482.315  
  21674374.232   -66267522.755  
 18  6 25  3 15  0.0000000  0  9G27G30G11G28G09G18G07G08G01
  22906820.796    12969900.723  
  22372344.851    -4678185.034  
  20783634.306    -2379559.500  
  24411276.957    52186811.583  
  24299806.776    41035903.964  
  20557372.494      623856.706  
  20678571.352   -45384226.844  
  20892760.928   -59031234.455  
  21671442.698   -66282928.133  
 18  6 25  3 15  5.0000000  0  9G27G30G11G28G09G18G07G08G01
  22909514.046    12984044.655  
  22369856.027    -4691265.885  
  20781814.007    -2389123.745  
  24409201.955    52175938.081  
  24302190.375    41048432.203  
  20555697.720      615056.278  
  20677517.167   -45389768.789  
  20894140.737   -59023980.379  
  21668513.008   -66298323.372  
 18  6 25  3 15 10.0000000  0  9G27G30G11G28G09G18G07G08G01
  22912204.471    12998189.364  
  22367369.959    -4704336.542  
  20779995.749    -2398674.869  
  24407129.709    52165062.924  
  24304574.870    41060960.864  
  20554025.845      606271.779  
  20676465.739   -45395295.021  
  20895521.585   -59016720.032  
  21665586.359   -66313708.376  
 18  6 25  3 15 15.0000000  0  9G27G30G11G28G09G18G07G08G01
  22914896.764    13012334.769  
  22364885.472    -4717397.084  
  20778181.219    -2408212.953  
  24405061.906    52154186.076  
  24306959.944    41073489.866  
  20552358.126      597502.890  
  20675416.893   -45400805.723  
  20896905.159   -59009453.542  
  21662658.717   -66329083.213  
 18  6 25  3 15 20.0000000  0  9G27G30G11G28G09G18G07G08G01
  22917588.395    13026480.714  
  22362401.325    -4730447.570  
  20776369.747    -2417738.044  
  24403000.596    52143307.388  
  24309343.642    41086019.137  
  20550691.178      588749.645  
  20674371.250   -45406300.872  
  20898288.644   -59002180.909  
  21659735.564   -66344447.988  
 18  6 25  3 15 25.0000000  0  9G27G30G11G28G09G18G07G08G01
  22920280.692    13040627.216  
  22359920.420    -4743488.029  
  20774558.226    -2427250.207  
  24400939.952    52132426.804  
  24311728.005    41098548.533  
  20549029.045      580012.012  
  20673328.132   -45411780.625  
  20899673.796   -58994902.242  
  21656813.650   -66359802.701  
 18  6 25  3 15 30.0000000  0  9G27G30G11G28G09G18G07G08G01
  22922972.606    13054774.440  
  22357438.273    -4756518.219  
  20772750.757    -2436749.244  
  24398868.335    52121544.631  
  24314112.700    41111078.322  
  20547369.962      571290.177  
  20672289.782   -45417244.686  
  20901060.711   -58987617.261  
  21653894.070   -66375147.137  
 18  6 25  3 15 35.0000000  0  9G27G30G11G28G09G18G07G08G01
  22925665.140    13068922.438  
  22354957.891    -4769538.069  
  20770945.340    -2446235.042  
  24396797.483    52110660.811  
  24316497.015    41123608.514  
  20545711.787      562584.307  
  20671252.483   -45422693.000  
  20902447.961   -58980325.862  
  21650974.540   -66390481.226  
 18  6 25  3 15 40.0000000  0  9G27G30G11G28G09G18G07G08G01
  22928357.141    13083071.104  
  22352485.848    -4782547.727  
  20769143.825    -2455707.767  
  24394726.239    52099775.280  
  24318880.080    41136139.038  
  20544059.517      553894.139  
  20670218.656   -45428125.711  
  20903836.824   -58973028.378  
  21648060.485   -66405805.072  
 18  6 25  3 15 45.0000000  0  9G27G30G11G28G09G18G07G08G01
  22931048.901    13097220.429  
  22350012.991    -4795547.202  
  20767344.216    -2465167.412  
  24392649.747    52088887.993  
  24321264.622    41148669.792  
  20542408.580      545219.753  
  20669188.309   -45433542.755  
  20905226.590   -58965724.768  
  21645146.047   -66421118.727  
 18  6 25  3 15 50.0000000  0  9G27G30G11G28G09G18G07G08G01
  22933742.643    13111370.161  
  22347542.403    -4808536.644  
  20765546.017    -2474614.170  
  24390575.667    52077998.892  
  24323645.422    41161200.611  
  20540760.627      536560.899  
  20668159.801   -45438944.363  
  20906616.622   -58958415.205  
  21642234.163   -66436422.244  
 18  6 25  3 15 55.0000000  0  9G27G30G11G28G09G18G07G08G01
  22936434.687    13125520.505  
  22345071.975    -4821515.875  
  20763751.556    -2484047.867  
  24388503.464    52067108.065  
  24326029.960    41173731.710  
  20539115.411      527917.828  
  20667135.175   -45444330.426  
  20908009.248   -58951099.522  
  21639324.301   -66451715.566  
 18  6 25  3 16  0.0000000  0  9G27G30G11G28G09G18G07G08G01
  22939129.195    13139671.337  
  22342600.866    -4834484.983  
  20761957.557    -2493468.524  
  24386429.148    52056215.280  
  24328408.379    41186262.871  
  20537475.236      519290.459  
  20666113.157   -45449700.901  
  20909402.335   -58943777.755  
  21636414.900   -66466998.688  
 18  6 25  3 16  5.0000000  0  9G27G30G11G28G09G18G07G08G01
  22941820.924    13153823.034  
  22340136.706    -4847443.546  
  20760167.217    -2502875.810  
  24384359.493    52045321.062  
  24330784.590    41198794.447  
  20535835.429      510679.102  
  20665093.224   -45455055.508  
  20910796.935   -58936449.626  
  21633509.016   -66482271.319  
 18  6 25  3 16 10.0000000  0  9G27G30G11G28G09G18G07G08G01
  22944515.223    13167975.161  
  22337674.258    -4860392.055  
  20758379.734    -2512270.154  
  24382289.404    52034424.910  
  24333163.228    41211326.061  
  20534200.625      502083.427  
  20664077.149   -45460394.576  
  20912193.105   -58929115.500  
  21630604.414   -66497533.712  
 18  6 25  3 16 15.0000000  0  9G27G30G11G28G09G18G07G08G01
  22947207.572    13182127.990  
  22335212.008    -4873330.153  
  20756594.737    -2521651.304  
  24380216.220    52023527.142  
  24335542.349    41223858.006  
  20532566.304      493503.679  
  20663063.275   -45465717.888  
  20913590.186   -58921775.237  
  21627701.584   -66512785.775  
 18  6 25  3 16 20.0000000  0  9G27G30G11G28G09G18G07G08G01
  22949901.227    13196281.243  
  22332751.492    -4886258.169  
  20754811.762    -2531019.477  
  24378143.197    52012627.489  
  24337925.495    41236389.900  
  20530937.152      484939.595  
  20662054.426   -45471025.588  
  20914987.428   -58914428.898  
  21624800.487   -66528027.630  
 18  6 25  3 16 25.0000000  0  8G27G30G11G28G18G07G08G01
  22952594.939    13210435.171  
  22330292.606    -4899175.770  
  20753030.989    -2540374.474  
  24376066.223    52001726.118  
  20529310.632      476391.376  
  20661046.779   -45476317.572  
  20916386.301   -58907076.461  
  21621902.882   -66543259.075  
 18  6 25  3 16 30.0000000  0  9G27G30G11G28G09G18G07G08G01
  22955288.848    13224589.690  
  22327837.639    -4912083.048  
  20751254.993    -2549716.272  
  24373993.598    51990823.098  
  24342696.390    41261454.311  
  20527686.743      467859.025  
  20660043.623   -45481593.857  
  20917787.661   -58899717.899  
  21619006.047   -66558480.136  
 18  6 25  3 16 35.0000000  0  9G27G30G11G28G09G18G07G08G01
  22957979.898    13238744.789  
  22325382.101    -4924979.969  
  20749479.428    -2559044.925  
  24371916.681    51979918.406  
  24345084.084    41273986.785  
  20526066.719      459342.579  
  20659041.756   -45486854.419  
  20919188.880   -58892353.241  
  21616112.648   -66573690.774  
 18  6 25  3 16 40.0000000  0  9G27G30G11G28G09G18G07G08G01
  22960676.329    13252900.503  
  22322929.227    -4937866.549  
  20747705.954    -2568360.410  
  24369836.991    51969011.961  
  24347473.727    41286519.290  
  20524448.357      450842.013  
  20658044.699   -45492099.265  
  20920591.474   -58884982.393  
  21613219.337   -66588891.071  
 18  6 25  3 16 45.0000000  0  9G27G30G11G28G09G18G07G08G01
  22963369.494    13267056.648  
  22320480.384    -4950742.930  
  20745935.796    -2577662.877  
  24367757.038    51958103.746  
  24349865.540    41299051.804  
  20522832.738      442357.156  
  20657048.668   -45497328.555  
  20921995.238   -58877605.735  
  21610327.624   -66604081.090  
 18  6 25  3 16 50.0000000  0  9G27G30G11G28G09G18G07G08G01
  22966062.142    13281213.332  
  22318031.452    -4963608.877  
  20744167.982    -2586952.170  
  24365680.433    51947193.752  
  24352259.841    41311584.484  
  20521222.755      433888.274  
  20656056.269   -45502542.050  
  20923399.629   -58870223.005  
  21607438.685   -66619260.614  
 18  6 25  3 16 55.0000000  0  9G27G30G11G28G09G18G07G08G01
  22968756.211    13295370.535  
  22315585.517    -4976464.520  
  20742403.307    -2596228.329  
  24363604.104    51936281.936  
  24354652.559    41324117.182  
  20519614.193      425435.249  
  20655068.011   -45507739.909  
  20924805.871   -58862834.269  
  21604552.027   -66634429.788  
 18  6 25  3 17  0.0000000  0  9G27G30G11G28G09G18G07G08G01
  22971450.804    13309528.335  
  22313140.534    -4989309.718  
  20740641.159    -2605491.237  
  24361524.434    51925368.542  
  24357037.787    41336650.025  
  20518008.158      416998.108  
  20654081.278   -45512921.965  
  20926213.638   -58855439.416  
  21601669.183   -66649588.461  
 18  6 25  3 17  5.0000000  0  9G27G30G11G28G09G18G07G08G01
  22974144.152    13323686.616  
  22310699.315    -5002144.634  
  20738880.485    -2614741.045  
  24359449.244    51914453.275  
  24359422.057    41349182.812  
  20516406.316      408576.794  
  20653099.167   -45518088.366  
  20927621.163   -58848038.575  
  21598786.811   -66664736.724  
 18  6 25  3 17 10.0000000  0  9G27G30G11G28G09G18G07G08G01
  22976838.813    13337845.470  
  22308258.407    -5014969.018  
  20737122.698    -2623977.581  
  24357379.946    51903536.313  
  24361808.212    41361715.667  
  20514806.932      400171.522  
  20652119.085   -45523238.978  
  20929030.858   -58840631.581  
  21595905.037   -66679874.490  
 18  6 25  3 17 15.0000000  0  9G27G30G11G28G09G18G07G08G01
  22979534.554    13352004.825  
  22305818.579    -5027783.026  
  20735366.849    -2633200.950  
  24355302.283    51892617.619  
  24364193.014    41374248.559  
  20513209.915      391782.087  
  20651141.942   -45528373.837  
  20930441.777   -58833218.680  
  21593026.632   -66695001.751  
 18  6 25  3 17 20.0000000  0  9G27G30G11G28G09G18G07G08G01
  22982230.073    13366164.661  
  22303384.109    -5040586.654  
  20733615.786    -2642411.169  
  24353223.397    51881697.215  
  24366580.885    41386781.401  
  20511616.396      383408.584  
  20650168.155   -45533493.007  
  20931853.761   -58825799.802  
  21590148.720   -66710118.621  
 18  6 25  3 17 25.0000000  0  9G27G30G11G28G09G18G07G08G01
  22984925.001    13380324.927  
  22300949.335    -5053379.910  
  20731865.278    -2651608.283  
  24351147.068    51870774.914  
  24368964.159    41399314.078  
  20510026.008      375050.915  
  20649196.209   -45538596.519  
  20933266.442   -58818375.053  
  21587274.225   -66725225.026  
 18  6 25  3 17 30.0000000  0  9G27G30G11G28G09G18G07G08G01
  22987617.878    13394485.691  
  22298515.371    -5066162.736  
  20730117.154    -2660792.196  
  24349065.969    51859850.952  
  24371349.102    41411846.861  
  20508439.005      366709.175  
  20648227.507   -45543684.200  
  20934679.791   -58810944.301  
  21584402.256   -66740320.935  
 18  6 25  3 17 35.0000000  0  9G27G30G11G28G09G18G07G08G01
  22990311.343    13408646.948  
  22296086.145    -5078935.053  
  20728370.476    -2669962.858  
  24346987.890    51848925.282  
  24373734.919    41424379.536  
  20506854.164      358383.437  
  20647262.254   -45548756.064  
  20936096.303   -58803507.502  
  21581533.023   -66755406.249  
 18  6 25  3 17 40.0000000  0  9G27G30G11G28G09G18G07G08G01
  22993007.900    13422808.662  
  22293658.008    -5091696.938  
  20726628.036    -2679120.419  
  24344907.897    51837997.787  
  24376118.677    41436912.170  
  20505272.417      350073.602  
  20646301.096   -45553812.214  
  20937511.902   -58796064.772  
  21578663.448   -66770481.104  
 18  6 25  3 17 45.0000000  0  9G27G30G11G28G09G18G07G08G01
  22995700.871    13436970.883  
  22291231.579    -5104448.309  
  20724889.163    -2688264.808  
  24342829.610    51827068.561  
  24378504.859    41449444.740  
  20503693.950      341779.811  
  20645341.502   -45558852.579  
  20938928.207   -58788616.078  
  21575797.011   -66785545.378  
 18  6 25  3 17 50.0000000  0  9G27G30G11G28G09G18G07G08G01
  22998397.030    13451133.467  
  22288806.622    -5117189.314  
  20723151.477    -2697396.023  
  24340750.363    51816137.518  
  24380889.364    41461977.113  
  20502118.673      333501.869  
  20644385.670   -45563877.203  
  20940347.414   -58781161.586  
  21572931.903   -66800599.137  
 18  6 25  3 17 55.0000000  0  9G27G30G11G28G09G18G07G08G01
  23001092.012    13465296.739  
  22286382.919    -5129919.580  
  20721416.475    -2706513.749  
  24338670.796    51805204.956  
  24383271.547    41474509.610  
  20500546.939      325240.116  
  20643432.809   -45568885.772  
  20941768.019   -58773700.898  
  21570069.480   -66815642.127  
 18  6 25  3 18  0.0000000  0  9G27G30G11G28G09G18G07G08G01
  23003789.256    13479460.337  
  22283964.198    -5142639.455  
  20719683.736    -2715618.414  
  24336588.341    51794270.486  
  24385655.133    41487041.838  
  20498978.613      316994.235  
  20642481.781   -45573878.679  
  20943188.167   -58766234.374  
  21567208.747   -66830674.670  
 18  6 25  3 18  5.0000000  0  9G27G30G11G28G09G18G07G08G01
  23006483.920    13493624.522  
  22281543.898    -5155348.631  
  20717953.140    -2724709.622  
  24334507.312    51783334.513  
  24388042.436    41499574.155  
  20497413.001      308764.526  
  20641535.614   -45578855.507  
  20944610.601   -58758761.711  
  21564350.586   -66845696.432  
 18  6 25  3 18 10.0000000  0  9G27G30G11G28G09G18G07G08G01
  23009175.288    13507789.083  
  22279128.029    -5168047.374  
  20716227.260    -2733787.698  
  24332427.137    51772396.676  
  24390427.015    41512106.233  
  20495849.531      300550.730  
  20640592.019   -45583816.650  
  20946033.173   -58751283.273  
  21561494.281   -66860707.643  
 18  6 25  3 18 15.0000000  0  9G27G30G11G28G09G18G07G08G01
  23011872.314    13521954.195  
  22276713.669    -5180735.462  
  20714502.174    -2742852.392  
  24330342.890    51761457.245  
  24392810.956    41524638.254  
  20494289.143      292353.103  
  20639650.789   -45588761.892  
  20947457.540   -58743798.729  
  21558640.056   -66875708.130  
 18  6 25  3 18 20.0000000  0  9G27G30G11G28G09G18G07G08G01
  23014569.465    13536119.810  
  22274300.292    -5193412.877  
  20712777.927    -2751903.775  
  24328260.484    51750516.189  
  24395196.166    41537170.263  
  20492733.888      284171.605  
  20638712.118   -45593691.214  
  20948883.176   -58736308.235  
  21555787.816   -66890697.883  
 18  6 25  3 18 25.0000000  0  9G27G30G11G28G09G18G07G08G01
  23017266.318    13550285.712  
  22271890.910    -5206079.885  
  20711056.245    -2760942.002  
  24326178.926    51739573.187  
  24397583.798    41549701.901  
  20491179.624      276005.950  
  20637776.726   -45598604.867  
  20950309.230   -58728812.009  
  21552937.568   -66905677.142  
 18  6 25  3 18 30.0000000  0  9G27G30G11G28G09G18G07G08G01
  23019962.229    13564451.952  
  22269482.589    -5218736.375  
  20709342.493    -2769967.045  
  24324096.425    51728628.412  
  24399967.912    41562233.264  
  20489628.424      267856.220  
  20636844.970   -45603502.790  
  20951737.060   -58721309.965  
  21550087.379   -66920645.795  
 18  6 25  3 18 35.0000000  0  9G27G30G11G28G09G18G07G08G01
  23022657.934    13578618.632  
  22267075.064    -5231382.259  
  20707626.101    -2778978.789  
  24322013.003    51717681.941  
  24402353.537    41574764.398  
  20488079.164      259722.593  
  20635915.012   -45608384.790  
  20953166.259   -58713801.966  
  21547241.134   -66935603.743  
 18  6 25  3 18 40.0000000  0  9G27G30G11G28G09G18G07G08G01
  23025352.680    13592785.599  
  22264671.157    -5244017.680  
  20705914.188    -2787977.423  
  24319929.623    51706733.574  
  24404738.488    41587295.220  
  20486534.525      251604.844  
  20634991.106   -45613251.087  
  20954595.499   -58706288.374  
  21544397.649   -66950551.093  
 18  6 25  3 18 45.0000000  0  9G27G30G11G28G09G18G07G08G01
  23028049.413    13606953.123  
  22262269.668    -5256642.257  
  20704203.689    -2796962.571  
  24317845.941    51695783.676  
  24407124.998    41599825.994  
  20484992.589      243503.371  
  20634065.610   -45618101.368  
  20956026.441   -58698768.659  
  21541555.437   -66965487.604  
 18  6 25  3 18 50.0000000  0  9G27G30G11G28G09G18G07G08G01
  23030744.015    13621120.960  
  22259868.195    -5269256.319  
  20702497.356    -2805934.536  
  24315759.842    51684831.956  
  24409508.947    41612356.467  
  20483454.532      235417.959  
  20633146.712   -45622935.794  
  20957458.543   -58691243.094  
  21538716.102   -66980413.455  
 18  6 25  3 18 55.0000000  0  9G27G30G11G28G09G18G07G08G01
  23033440.979    13635289.279  
  22257470.514    -5281859.634  
  20700792.670    -2814893.128  
  24313676.964    51673878.566  
  24411893.685    41624886.732  
  20481919.696      227348.669  
  20632229.746   -45627754.269  
  20958893.007   -58683711.656  
  21535875.696   -66995328.445  
 18  6 25  3 19  0.0000000  0  9G27G30G11G28G09G18G07G08G01
  23036136.160    13649458.033  
  22255074.056    -5294452.238  
  20699090.350    -2823838.333  
  24311593.161    51662923.569  
  24414280.360    41637416.821  
  20480387.369      219295.550  
  20631316.292   -45632556.790  
  20960326.118   -58676174.290  
  21533040.803   -67010232.675  
 18  6 25  3 19  5.0000000  0  9G27G30G11G28G09G18G07G08G01
  23038833.010    13663627.187  
  22252679.408    -5307034.186  
  20697390.414    -2832770.269  
  24309506.590    51651966.804  
  24416665.269    41649946.610  
  20478857.712      211258.495  
  20630405.079   -45637343.411  
  20961762.184   -58668631.069  
  21530205.862   -67025126.056  
 18  6 25  3 19 10.0000000  0  9G27G30G11G28G09G18G07G08G01
  23041529.514    13677796.784  
  22250287.851    -5319605.314  
  20695693.711    -2841688.818  
  24307420.963    51641008.408  
  24419050.835    41662476.220  
  20477331.861      203237.715  
  20629497.671   -45642114.021  
  20963198.335   -58661081.880  
  21527374.297   -67040008.635  
 18  6 25  3 19 15.0000000  0  9G27G30G11G28G09G18G07G08G01
  23044224.158    13691966.398  
  22247897.150    -5332166.126  
  20693998.437    -2850594.316  
  24305336.766    51630047.941  
  24421433.538    41675005.147  
  20475807.725      195232.648  
  20628592.837   -45646869.118  
  20964635.487   -58653527.278  
  21524543.159   -67054880.738  
 18  6 25  3 19 20.0000000  0  9G27G30G11G28G09G18G07G08G01
  23046922.645    13706136.489  
  22245508.290    -5344716.077  
  20692306.721    -2859486.436  
  24303251.118    51619085.877  
  24423817.223    41687533.882  
  20474288.148      187243.826  
  20627691.274   -45651608.148  
  20966074.908   -58645966.816  
  21521717.726   -67069741.901  
 18  6 25  3 19 25.0000000  0  9G27G30G11G28G09G18G07G08G01
  23049618.363    13720306.983  
  22243122.814    -5357255.316  
  20690616.671    -2868365.225  
  24301165.275    51608122.091  
  24426200.285    41700062.379  
  20472770.954      179271.218  
  20626791.521   -45656331.245  
  20967514.708   -58638400.427  
  21518890.524   -67084592.254  
 18  6 25  3 19 30.0000000  0  9G27G30G11G28G09G18G07G08G01
  23052316.763    13734477.966  
  22240738.016    -5369783.696  
  20688929.304    -2877230.533  
  24299078.109    51597156.711  
  24428583.310    41712590.568  
  20471258.015      171314.853  
  20625895.881   -45661038.256  
  20968954.328   -58630828.022  
  21516066.578   -67099431.613  
 18  6 25  3 19 35.0000000  0  7G27G30G11G18G07G08G01
  23055014.335    13748649.124  
  22238357.257    -5382301.496  
  20687245.402    -2886082.720  
  20469745.538      163374.420  
  20625004.566   -45665729.511  
  20970397.414   -58623250.130  
  21513245.381   -67114260.320  
 18  6 25  3 19 40.0000000  0  8G27G30G11G28G18G07G08G01
  23057708.272    13762820.584  
  22235977.297    -5394808.548  
  20685563.015    -2894921.568  
  24294903.351    74980947.388  
  20468236.721      155450.187  
  20624114.050   -45670404.802  
  20971840.441   -58615666.426  
  21510426.416   -67129078.135  
 18  6 25  3 19 45.0000000  0  9G27G30G11G28G18G07G08G09G01
  23060406.273    13776992.443  
  22233600.543    -5407304.810  
  20683883.405    -2903747.009  
  24292810.635    74969976.670  
  20466732.971      147542.183  
  20623226.739   -45675064.109  
  20973284.528   -58608076.915  
  24435738.860    14281201.499  
  21507606.506   -67143885.065  
 18  6 25  3 19 50.0000000  0  9G27G30G11G28G18G07G08G09G01
  23063104.843    13791164.756  
  22231224.644    -5419790.130  
  20682207.655    -2912558.920  
  24290717.200    74959004.418  
  20465231.078      139650.512  
  20622344.434   -45679707.273  
  20974730.328   -58600481.379  
  24438116.332    14293728.341  
  21504792.460   -67158680.911  
 18  6 25  3 19 55.0000000  0  9G27G30G11G28G18G07G08G09G01
  23065798.476    13805337.286  
  22228850.390    -5432264.768  
  20680534.122    -2921357.596  
  24288622.976    74948030.278  
  20463733.119      131774.828  
  20621464.060   -45684334.615  
  20976176.199   -58592880.293  
  24440508.612    14306254.528  
  21501978.770   -67173466.023  
 18  6 25  3 20  0.0000000  0  9G27G30G11G28G18G07G08G09G01
  23068495.475    13819510.146  
  22226476.927    -5444728.605  
  20678861.953    -2930142.844  
  24286527.541    74937054.409  
  20462236.809      123915.478  
  20620585.764   -45688945.991  
  20977623.720   -58585273.367  
  24442886.660    14318780.392  
  21499167.589   -67188240.179  
 18  6 25  3 20  5.0000000  0  9G27G30G11G28G18G07G08G09G01
  23071193.843    13833683.238  
  22224108.124    -5457181.665  
  20677192.440    -2938914.795  
  24284435.192    74926076.794  
  20460744.015      116072.234  
  20619710.698   -45693541.450  
  20979072.180   -58577660.768  
  24445267.650    14331305.689  
  21496358.922   -67203003.487  
 18  6 25  3 20 10.0000000  0  9G27G30G11G28G18G07G08G09G01
  23073892.414    13847856.690  
  22221740.955    -5469623.952  
  20675525.848    -2947673.367  
  24282347.194    74915097.440  
  20459254.428      108245.135  
  20618839.411   -45698120.961  
  20980521.987   -58570042.452  
  24447647.841    14343830.606  
  21493551.601   -67217755.827  
 18  6 25  3 20 15.0000000  0  9G27G30G11G28G18G07G08G09G01
  23076587.142    13862030.487  
  22219374.808    -5482055.252  
  20673861.854    -2956418.473  
  24280272.097    74904116.508  
  20457768.869      100434.410  
  20617970.578   -45702684.303  
  20981973.104   -58562418.288  
  24450031.488    14356355.194  
  21490744.875   -67232497.114  
 18  6 25  3 20 20.0000000  0  9G27G30G11G28G18G07G08G09G01
  23079286.680    13876204.524  
  22217011.897    -5494475.790  
  20672200.093    -2965150.292  
  24278195.083    74893133.795  
  20456285.115       92639.790  
  20617105.697   -45707231.761  
  20983424.880   -58554788.483  
  24452413.505    14368879.137  
  21487942.385   -67247227.514  
 18  6 25  3 20 25.0000000  0  9G27G30G11G28G18G07G08G09G01
  23081981.752    13890378.867  
  22214648.812    -5506885.469  
  20670539.733    -2973868.718  
  24276106.592    74882149.357  
  20454805.337       84861.549  
  20616244.219   -45711763.178  
  20984878.343   -58547152.946  
  24454792.916    14381402.624  
  21485141.153   -67261946.912  
 18  6 25  3 20 30.0000000  0  9G27G30G11G28G18G07G08G09G01
  23084681.026    13904553.487  
  22212289.644    -5519284.221  
  20668884.004    -2982573.747  
  24274013.288    74871163.235  
  20453327.614       77099.478  
  20615384.653   -45716278.625  
  20986331.144   -58539511.782  
  24457177.387    14393925.619  
  21482342.406   -67276655.327  
 18  6 25  3 20 35.0000000  0  9G27G30G11G28G18G07G08G09G01
  23087379.149    13918728.273  
  22209933.045    -5531672.188  
  20667229.271    -2991265.431  
  24271920.837    74860175.346  
  20451853.749       69353.610  
  20614528.230   -45720778.067  
  20987787.944   -58531864.941  
  24459562.998    14406447.965  
  21479545.513   -67291352.793  
 18  6 25  3 20 40.0000000  0  9G27G30G11G28G18G07G08G09G01
  23090075.949    13932903.481  
  22207576.411    -5544049.204  
  20665578.510    -2999943.614  
  24269829.066    74849185.855  
  20450383.570       61624.086  
  20613674.634   -45725261.374  
  20989243.279   -58524212.260  
  24461947.285    14418969.911  
  21476750.303   -67306039.140  
 18  6 25  3 20 45.0000000  0  9G27G30G11G28G18G07G08G09G01
  23092771.834    13947079.007  
  22205223.726    -5556415.164  
  20663929.837    -3008608.294  
  24267737.667    74838194.719  
  20448915.622       53910.893  
  20612824.986   -45729728.583  
  20990701.132   -58516553.808  
  24464329.369    14431491.427  
  21473957.181   -67320714.361  
 18  6 25  3 20 50.0000000  0  9G27G30G11G28G18G07G08G09G01
  23095468.860    13961254.699  
  22202873.471    -5568770.332  
  20662282.450    -3017259.658  
  24265647.267    74827201.696  
  20447450.391       46213.905  
  20611979.057   -45734179.834  
  20992160.127   -58508889.802  
  24466710.449    14444012.320  
  21471167.491   -67335378.615  
 18  6 25  3 20 55.0000000  0  9G27G30G11G28G18G07G08G09G01
  23098167.815    13975430.668  
  22200525.431    -5581114.511  
  20660639.137    -3025897.524  
  24263554.789    74816207.025  
  20445988.233       38533.369  
  20611134.340   -45738614.975  
  20993618.332   -58501220.019  
  24469095.317    14456532.631  
  21468379.872   -67350031.792  
 18  6 25  3 21  0.0000000  0  9G27G30G11G28G18G07G08G09G01
  23100865.307    13989606.825  
  22198174.210    -5593447.844  
  20658997.795    -3034522.074  
  24261461.277    74805210.512  
  20444531.050       30868.907  
  20610292.882   -45743034.180  
  20995079.080   -58493544.621  
  24471478.578    14469052.281  
  21465592.364   -67364673.976  
 18  6 25  3 21  5.0000000  0  9G27G30G11G28G18G07G08G09G01
  23103562.170    14003783.284  
  22195833.379    -5605770.186  
  20657359.689    -3043133.120  
  24259369.569    74794212.345  
  20443075.529       23220.734  
  20609455.661   -45747437.315  
  20996541.203   -58485863.630  
  24473859.494    14481571.371  
  21462808.949   -67379304.990  
 18  6 25  3 21 10.0000000  0  9G27G30G11G28G18G07G08G09G01
  23106262.161    14017959.695  
  22193489.809    -5618081.772  
  20655723.566    -3051730.922  
  24257276.410    74783212.296  
  20441623.422       15588.735  
  20608619.851   -45751824.531  
  20998004.737   -58478177.134  
  24476241.536    14494089.684  
  21460026.231   -67393925.140  
 18  6 25  3 21 15.0000000  0  9G27G30G11G28G18G07G08G09G01
  23108957.504    14032136.363  
  22191147.887    -5630382.467  
  20654088.232    -3060315.401  
  24255182.323    74772210.430  
  20440174.537        7972.950  
  20607787.692   -45756195.761  
  20999468.059   -58470485.098  
  24478621.218    14506607.389  
  21457245.589   -67408534.251  
 18  6 25  3 21 20.0000000  0  9G27G30G11G28G18G07G08G09G01
  23111654.706    14046313.135  
  22188811.115    -5642672.143  
  20652459.764    -3068886.463  
  24253087.663    74761206.874  
  20438727.224         373.460  
  20606959.252   -45760550.968  
  21000931.951   -58462787.409  
  24480998.466    14519124.308  
  21454468.380   -67423132.250  
 18  6 25  3 21 25.0000000  0  9G27G30G11G28G18G07G08G09G01
  23114353.579    14060490.194  
  22186473.725    -5654950.885  
  20650830.107    -3077444.080  
  24250990.095    74750201.638  
  20437283.873       -7209.710  
  20606133.485   -45764890.033  
  21002397.801   -58455084.156  
  24483374.953    14531640.761  
  21451693.701   -67437719.089  
 18  6 25  3 21 30.0000000  0  9G27G30G11G28G18G07G08G09G01
  23117051.221    14074667.716  
  22184138.967    -5667218.325  
  20649204.083    -3085987.953  
  24248898.879    74739195.022  
  20435843.725      -14776.275  
  20605311.065   -45769212.747  
  21003864.853   -58447375.050  
  24485747.919    14544156.653  
  21448919.651   -67452294.537  
 18  6 25  3 21 35.0000000  0  9G27G30G11G28G18G07G08G09G01
  23119749.985    14088845.638  
  22181806.047    -5679474.531  
  20647581.901    -3094518.176  
  24246805.638    74728186.820  
  20434407.991      -22326.235  
  20604491.343   -45773519.172  
  21005333.313   -58439660.038  
  24488121.293    14556672.110  
  21446146.723   -67466858.596  
 18  6 25  3 21 40.0000000  0  8G27G30G11G28G18G07G08G01
  23122449.377    14103023.350  
  22179474.756    -5691720.063  
  20645960.346    -3103035.236  
  24244712.309    74717176.550  
  20432974.603      -29860.212  
  20603675.395   -45777809.830  
  21006802.257   -58431939.720  
  21443376.713   -67481411.830  
 18  6 25  3 21 45.0000000  0  9G27G30G11G28G18G07G08G09G01
  23125146.491    14117201.265  
  22177147.054    -5703954.549  
  20644342.094    -3111538.900  
  24242616.273    74706164.512  
  20431543.085      -37377.788  
  20602862.608   -45782084.458  
  21008272.072   -58424213.960  
  24492868.447    14581700.275  
  21440612.008   -67495953.940  
 18  6 25  3 21 50.0000000  0  9G27G30G11G28G18G07G08G09G01
  23127843.440    14131379.408  
  22174823.051    -5716177.933  
  20642726.538    -3120029.018  
  24240517.353    74695150.900  
  20430117.556      -44879.074  
  20602051.658   -45786342.932  
  21009744.011   -58416482.484  
  24495244.298    14594211.879  
  21437845.707   -67510484.758  
 18  6 25  3 21 55.0000000  0  9G27G30G11G28G18G07G08G09G01
  23130543.090    14145558.013  
  22172498.457    -5728390.111  
  20641113.684    -3128505.488  
  24238421.421    74684135.743  
  20428692.295      -52363.746  
  20601243.123   -45790585.159  
  21011216.647   -58408745.259  
  24497625.569    14606723.788  
  21435081.535   -67525004.184  
 18  6 25  3 22  0.0000000  0  9G27G30G11G28G18G07G08G09G01
  23133241.502    14159736.893  
  22170176.633    -5740590.975  
  20639503.742    -3136968.234  
  24236322.819    74673119.101  
  20427270.662      -59831.822  
  20600441.364   -45794811.034  
  21012689.191   -58401002.340  
  24500006.317    14619235.792  
  21432322.708   -67539512.214  
 18  6 25  3 22  5.0000000  0  9G27G30G11G28G18G07G08G09G01
  23135939.948    14173915.673  
  22167854.841    -5752781.023  
  20637896.981    -3145417.724  
  24234223.250    74662100.537  
  20425853.211      -67283.768  
  20599638.780   -45799020.982  
  21014164.773   -58393253.996  
  24502387.242    14631746.764  
  21429563.199   -67554009.200  
 18  6 25  3 22 10.0000000  0  9G27G30G11G28G18G07G08G09G01
  23138636.526    14188094.662  
  22165539.339    -5764959.914  
  20636288.925    -3153853.748  
  24232121.956    74651080.306  
  20424437.471      -74719.339  
  20598841.769   -45803214.862  
  21015640.205   -58385500.141  
  24504767.157    14644256.949  
  21426806.973   -67568494.912  
 18  6 25  3 22 15.0000000  0  9G27G30G11G28G18G07G08G09G01
  23141333.522    14202273.733  
  22163223.825    -5777127.788  
  20634687.439    -3162276.299  
  24230026.946    74640058.225  
  20423026.011      -82138.564  
  20598045.461   -45807392.611  
  21017117.199   -58377740.873  
  24507147.634    14656766.335  
  21424051.880   -67582969.502  
 18  6 25  3 22 20.0000000  0  9G27G30G11G28G18G07G08G09G01
  23144031.540    14216452.864  
  22160909.905    -5789284.650  
  20633087.406    -3170685.429  
  24227931.099    74629034.371  
  20421617.864      -89541.474  
  20597254.040   -45811554.304  
  21018594.357   -58369976.023  
  24509527.130    14669274.921  
  21421300.386   -67597432.841  
 18  6 25  3 22 25.0000000  0  9G27G30G11G28G18G07G08G09G01
  23146730.227    14230632.142  
  22158598.228    -5801430.301  
  20631489.042    -3179081.013  
  24225836.350    74618008.730  
  20420212.245      -96927.835  
  20596466.436   -45815699.817  
  21020072.470   -58362205.700  
  24511912.016    14681782.620  
  21418549.989   -67611884.847  
 18  6 25  3 22 30.0000000  0  9G27G30G11G28G18G07G08G09G01
  23149428.005    14244811.446  
  22156289.220    -5813564.990  
  20629894.635    -3187463.271  
  24223738.259    74606981.273  
  20418809.724     -104298.022  
  20595679.639   -45819829.350  
  21021551.248   -58354429.944  
  24514298.140    14694289.352  
  21415801.545   -67626325.716  
 18  6 25  3 22 35.0000000  0  9G27G30G11G28G18G07G08G09G01
  23152127.378    14258990.954  
  22153983.381    -5825688.436  
  20628301.966    -3195831.916  
  24221641.906    74595952.210  
  20417410.229     -111651.639  
  20594896.870   -45823942.588  
  21023032.337   -58346648.642  
  24516689.293    14706795.329  
  21413054.268   -67640755.183  
 18  6 25  3 22 40.0000000  0  9G27G30G11G28G18G07G08G09G01
  23154824.461    14273170.582  
  22151678.399    -5837800.674  
  20626712.586    -3204187.078  
  24219542.833    74584921.500  
  20416013.881     -118988.820  
  20594117.105   -45828039.648  
  21024514.854   -58338861.810  
  24519079.443    14719300.442  
  21410311.281   -67655173.318  
 18  6 25  3 22 45.0000000  0  9G27G30G11G28G18G07G08G09G01
  23157522.231    14287350.267  
  22149373.962    -5849901.824  
  20625125.469    -3212528.747  
  24217441.014    74573889.022  
  20414619.652     -126309.571  
  20593340.031   -45832120.575  
  21025997.631   -58331069.517  
  24521469.423    14731804.726  
  21407570.700   -67669580.162  
 18  6 25  3 22 50.0000000  0  9G27G30G11G28G18G07G08G09G01
  23160221.584    14301530.212  
  22147075.114    -5861991.665  
  20623539.648    -3220856.765  
  24215343.497    74562854.985  
  20413231.155     -133613.825  
  20592566.829   -45836185.214  
  21027481.562   -58323271.617  
  24523857.837    14744308.188  
  21404830.414   -67683975.548  
 18  6 25  3 22 55.0000000  0  9G27G30G11G28G18G07G08G09G01
  23162918.949    14315710.204  
  22144775.852    -5874070.363  
  20621957.134    -3229171.330  
  24213244.707    74551819.184  
  20411843.245     -140901.728  
  20591796.218   -45840233.693  
  21028966.222   -58315468.314  
  24526238.396    14756810.761  
  21402095.294   -67698359.597  
 18  6 25  3 23  0.0000000  0  9G27G30G11G28G18G07G08G09G01
  23165615.591    14329890.466  
  22142478.443    -5886137.603  
  20620378.476    -3237472.135  
  24211145.766    74540781.851  
  20410459.621     -148172.855  
  20591028.605   -45844265.778  
  21030451.878   -58307659.369  
  24528617.088    14769312.633  
  21399360.453   -67712732.064  
 18  6 25  3 23  5.0000000  0  9G27G30G11G28G18G07G08G09G01
  23168317.511    14344070.863  
  22140183.736    -5898193.622  
  20618800.945    -3245759.340  
  24209045.378    74529742.824  
  20409079.557     -155427.490  
  20590264.695   -45848281.632  
  21031938.804   -58299844.912  
  24530995.906    14781813.623  
  21396625.309   -67727093.098  
 18  6 25  3 23 10.0000000  0  9G27G30G11G28G18G07G08G09G01
  23171017.987    14358251.437  
  22137893.739    -5910238.346  
  20617225.119    -3254033.002  
  24206943.117    74518702.133  
  20407702.200     -162665.617  
  20589503.778   -45852281.238  
  21033427.149   -58292024.916  
  24533375.285    14794313.695  
  21393896.162   -67741442.729  
 18  6 25  3 23 15.0000000  0  9G27G30G11G28G18G07G08G09G01
  23173714.952    14372431.808  
  22135604.379    -5922272.108  
  20615654.940    -3262293.397  
  24204842.066    74507659.488  
  20406326.626     -169887.556  
  20588747.219   -45856264.919  
  21034916.131   -58284199.767  
  24535753.583    14806812.556  
  21391168.512   -67755781.193  
 18  6 25  3 23 20.0000000  0  9G27G30G11G28G18G07G08G09G01
  23176412.803    14386612.327  
  22133314.046    -5934294.531  
  20614084.789    -3270540.076  
  24202737.896    74496615.202  
  20404956.660     -177092.852  
  20587990.689   -45860232.243  
  21036406.859   -58276369.074  
  24538129.907    14819310.595  
  21388439.316   -67770108.131  
 18  6 25  3 23 25.0000000  0  9G27G30G11G28G18G07G08G09G01
  23179114.163    14400793.374  
  22131029.081    -5946305.281  
  20612519.433    -3278772.808  
  24200633.800    74485569.650  
  20403589.058     -184281.271  
  20587238.525   -45864182.998  
  21037898.520   -58268532.502  
  24540507.021    14831807.990  
  21385717.063   -67784423.228  
 18  6 25  3 23 30.0000000  0  9G27G30G11G28G18G07G08G09G01
  23181810.563    14414974.122  
  22128744.881    -5958305.034  
  20610955.987    -3286992.168  
  24198528.464    74474522.105  
  20402224.509     -191453.441  
  20586490.273   -45868117.681  
  21039390.229   -58260690.764  
  24542884.755    14844304.236  
  21382995.001   -67798727.134  
 18  6 25  3 23 35.0000000  0  9G27G30G11G28G18G07G08G09G01
  23184509.585    14429155.085  
  22126465.306    -5970293.380  
  20609393.874    -3295197.800  
  24196428.612    74463473.005  
  20400860.722     -198609.028  
  20585744.929   -45872036.044  
  21040884.846   -58252843.525  
  24545262.965    14856799.595  
  21380275.418   -67813019.460  
 18  6 25  3 23 40.0000000  0  9G27G30G11G28G18G07G08G09G01
  23187207.013    14443335.911  
  22124184.709    -5982270.648  
  20607834.461    -3303390.162  
  24194323.303    74452421.935  
  20399503.212     -205748.346  
  20585001.855   -45875938.481  
  21042377.584   -58244991.046  
  24547639.295    14869293.631  
  21377557.676   -67827300.581  
 18  6 25  3 23 45.0000000  0  9G27G30G11G28G18G07G08G09G01
  23189903.896    14457516.743  
  22121908.289    -5994236.593  
  20606278.222    -3311568.907  
  24192222.886    74441369.189  
  20398148.303     -212871.010  
  20584262.815   -45879824.600  
  21043872.637   -58237133.167  
  24550016.939    14881786.752  
  21374842.106   -67841570.117  
 18  6 25  3 23 50.0000000  0  9G27G30G11G28G18G07G08G09G01
  23192602.191    14471697.487  
  22119634.855    -6006191.322  
  20604725.399    -3319734.201  
  24190121.735    74430314.614  
  20396795.523     -219977.297  
  20583526.045   -45883694.646  
  21045369.246   -58229270.038  
  24552393.707    14894278.715  
  21372130.382   -67855828.295  
 18  6 25  3 23 55.0000000  0  9G27G30G11G28G18G07G08G09G01
  23195304.100    14485878.510  
  22117362.603    -6018134.426  
  20603173.901    -3327885.659  
  24188017.043    74419258.543  
  20395447.215     -227066.793  
  20582794.320   -45887548.159  
  21046865.892   -58221401.191  
  24554771.513    14906769.842  
  21369417.979   -67870074.677  
 18  6 25  3 24  0.0000000  0  9G27G30G11G28G18G07G08G09G01
  23197999.562    14500059.498  
  22115091.344    -6030066.370  
  20601623.969    -3336023.684  
  24185915.349    74408200.648  
  20394101.189     -234139.812  
  20582063.160   -45891385.544  
  21048364.819   -58213527.187  
  24557148.309    14919259.768  
  21366709.860   -67884309.690  
 18  6 25  3 24  5.0000000  0  9G27G30G11G28G18G07G08G09G01
  23200699.169    14514240.782  
  22112821.655    -6041986.701  
  20600078.182    -3344147.844  
  24183809.929    74397141.360  
  20392758.736     -241196.028  
  20581336.002   -45895206.385  
  21049865.030   -58205647.524  
  24559523.527    14931748.951  
  21364003.026   -67898532.896  
 18  6 25  3 24 10.0000000  0  9G27G30G11G28G18G07G08G09G01
  23203398.207    14528421.851  
  22110556.261    -6053895.809  
  20598536.261    -3352258.642  
  24181703.940    74386080.273  
  20391417.859     -248235.920  
  20580612.138   -45899011.153  
  21051364.814   -58197762.669  
  24561903.040    14944236.819  
  21361298.054   -67912744.714  
 18  6 25  3 24 15.0000000  0  9G27G30G11G28G18G07G08G09G01
  23206096.244    14542602.931  
  22108292.014    -6065793.523  
  20596996.202    -3360355.791  
  24179598.239    74375017.492  
  20390082.278     -255259.137  
  20579890.279   -45902799.624  
  21052866.174   -58189872.462  
  24564278.406    14956723.709  
  21358595.516   -67926944.957  
 18  6 25  3 24 20.0000000  0  9G27G30G11G28G18G07G08G09G01
  23208794.274    14556784.022  
  22106029.620    -6077679.904  
  20595455.277    -3368439.421  
  24177495.535    74363952.975  
  20388747.405     -262265.940  
  20579173.276   -45906571.849  
  21054369.529   -58181976.980  
  24566653.477    14969209.350  
  21355896.548   -67941133.694  
 18  6 25  3 24 25.0000000  0  9G27G30G11G28G18G07G08G09G01
  23211492.406    14570964.921  
  22103771.047    -6089555.020  
  20593921.036    -3376509.458  
  24175389.927    74352886.634  
  20387418.787     -269256.169  
  20578457.664   -45910327.895  
  21055871.842   -58174076.216  
  24569029.938    14981693.823  
  21353198.110   -67955310.926  
 18  6 25  3 24 30.0000000  0  9G27G30G11G28G18G07G08G09G01
  23214189.754    14585145.955  
  22101513.265    -6101418.616  
  20592387.156    -3384565.837  
  24173283.536    74341818.621  
  20386091.532     -276229.786  
  20577746.849   -45914067.585  
  21057377.234   -58166170.038  
  24571407.618    14994177.165  
  21350501.895   -67969476.447  
 18  6 25  3 24 35.0000000  0  9G27G30G11G28G18G07G08G09G01
  23216886.666    14599327.014  
  22099256.907    -6113270.779  
  20590856.274    -3392608.618  
  24171179.285    74330748.927  
  20384767.275     -283186.785  
  20577037.887   -45917791.036  
  21058882.191   -58158258.561  
  24573783.146    15006659.430  
  21347809.536   -67983630.386  
 18  6 25  3 24 40.0000000  0  9G27G30G11G28G18G07G08G09G01
  23219587.464    14613508.140  
  22097004.149    -6125111.384  
  20589328.849    -3400637.659  
  24169070.192    74319677.667  
  20383446.618     -290127.041  
  20576332.239   -45921498.006  
  21060388.028   -58150341.602  
  24576159.841    15019140.552  
  21345118.630   -67997772.551  
 18  6 25  3 24 45.0000000  0  7G27G30G11G18G07G08G01
  23222284.358    14627689.212  
  22094753.640    -6136940.621  
  20587804.388    -3408653.141  
  20382128.638     -297050.749  
  20575630.843   -45925188.744  
  21061896.687   -58142419.461  
  21342429.401   -68011903.122  
 18  6 25  3 24 50.0000000  0  8G27G30G11G18G07G08G28G01
  23224976.728    14641870.292  
  22092505.761    -6148758.327  
  20586280.555    -3416654.909  
  20380815.150     -303957.793  
  20574931.219   -45928863.108  
  21063404.256   -58134491.978  
  24164811.197    30190772.472  
  21339742.517   -68026022.010  
 18  6 25  3 24 55.0000000  0  8G27G30G11G18G07G08G28G01
  23227671.945    14656051.297  
  22090259.442    -6160564.645  
  20584760.856    -3424643.054  
  20379504.652     -310848.194  
  20574234.728   -45932521.222  
  21064914.100   -58126559.151  
  24162698.955    30179696.124  
  21337057.192   -68040129.256  
 18  6 25  3 25  0.0000000  0  8G27G30G11G18G07G08G28G01
  23230362.599    14670232.143  
  22088013.567    -6172359.579  
  20583244.464    -3432617.690  
  20378195.314     -317722.167  
  20573542.403   -45936163.133  
  21066424.960   -58118621.166  
  24160588.445    30168617.430  
  21334375.888   -68054224.919  
 18  6 25  3 25  5.0000000  0  8G27G30G11G18G07G08G28G01
  23233059.589    14684413.139  
  22085772.598    -6184142.819  
  20581728.113    -3440578.515  
  20376890.882     -324579.358  
  20572852.693   -45939788.545  
  21067936.148   -58110677.719  
  24158484.558    30157537.659  
  21331695.770   -68068308.744  
 18  6 25  3 25 10.0000000  0  8G27G30G11G18G07G08G28G01
  23235752.571    14698594.319  
  22083530.340    -6195914.389  
  20580216.339    -3448525.495  
  20375589.453     -331419.689  
  20572165.558   -45943397.420  
  21069449.480   -58102728.807  
  24156386.680    30146456.405  
  21329018.083   -68082380.669  
 18  6 25  3 25 15.0000000  0  8G27G30G11G18G07G08G28G01
  23238443.263    14712774.967  
  22081293.519    -6207674.822  
  20578706.568    -3456459.164  
  20374289.741     -338243.655  
  20571481.141   -45946990.318  
  21070963.384   -58094775.003  
  24154297.243    30135373.103  
  21326342.399   -68096441.213  
 18  6 25  3 25 20.0000000  0  8G27G30G11G18G07G08G28G01
  23241136.848    14726955.949  
  22079058.445    -6219423.370  
  20577199.546    -3464378.855  
  20372995.496     -345050.696  
  20570801.620   -45950566.590  
  21072477.462   -58086815.624  
  24152204.403    30124288.435  
  21323668.606   -68110489.727  
 18  6 25  3 25 25.0000000  0  8G27G30G11G18G07G08G28G01
  23243836.238    14741136.240  
  22076825.314    -6231160.967  
  20575695.753    -3472285.450  
  20371703.194     -351841.650  
  20570122.752   -45954127.077  
  21073993.339   -58078851.548  
  24150097.192    30113201.554  
  21320996.897   -68124527.057  
 18  6 25  3 25 30.0000000  0  7G30G11G18G07G08G28G01
  22074591.109    -6242887.348  
  20574192.176    -3480178.705  
  20370414.111     -358616.254  
  20569448.392   -45957671.493  
  21075509.287   -58070882.541  
  24147985.331    30102112.660  
  21318328.694   -68138552.940  
 18  6 25  3 25 35.0000000  0  7G30G11G18G07G08G28G01
  22072363.057    -6254601.654  
  20572694.179    -3488057.832  
  20369126.888     -365373.635  
  20568777.896   -45961199.053  
  21077026.952   -58062907.819  
  24145872.754    30091022.630  
  21315661.779   -68152566.613  
 18  6 25  3 25 40.0000000  0  7G30G11G18G07G08G28G01
  22070136.443    -6266304.313  
  20571197.191    -3495923.154  
  20367844.968     -372114.204  
  20568110.269   -45964710.155  
  21078545.627   -58054927.763  
  24143760.757    30079931.050  
  21312996.589   -68166568.346  
 18  6 25  3 25 45.0000000  0  7G30G11G18G07G08G28G01
  22067912.523    -6277995.125  
  20569702.753    -3503774.477  
  20366566.599     -378837.820  
  20567445.478   -45968204.584  
  21080065.134   -58046942.181  
  24141654.315    30068838.019  
  21310335.809   -68180558.006  
 18  6 25  3 25 50.0000000  0  7G30G11G18G07G08G28G01
  22065690.106    -6289674.460  
  20568210.821    -3511612.275  
  20365289.877     -385544.903  
  20566782.477   -45971682.790  
  21081586.002   -58038951.581  
  24139546.801    30057743.129  
  21307675.817   -68194535.991  
 18  6 25  3 25 55.0000000  0  7G30G11G18G07G08G28G01
  22063469.410    -6301342.301  
  20566721.753    -3519436.480  
  20364016.449     -392235.285  
  20566124.344   -45975144.692  
  21083107.016   -58030955.869  
  24137438.145    30046646.437  
  21305016.401   -68208502.260  
 18  6 25  3 26  0.0000000  0  7G30G11G18G07G08G28G01
  22061250.220    -6312998.390  
  20565236.053    -3527246.868  
  20362745.816     -398908.906  
  20565468.148   -45978590.096  
  21084630.396   -58022954.803  
  24135319.693    30035548.175  
  21302361.067   -68222456.614  
 18  6 25  3 26  5.0000000  0  7G30G11G18G07G08G28G01
  22059033.489    -6324642.619  
  20563751.237    -3535043.297  
  20361479.501     -405565.511  
  20564815.697   -45982018.852  
  21086153.658   -58014948.338  
  24133203.269    30024448.484  
  21299709.480   -68236398.855  
 18  6 25  3 26 10.0000000  0  7G30G11G18G07G08G28G01
  22056822.815    -6336275.246  
  20562270.188    -3542826.080  
  20360215.237     -412205.451  
  20564166.443   -45985431.252  
  21087677.397   -58006936.734  
  24131087.751    30013347.086  
  21297057.510   -68250329.295  
 18  6 25  3 26 15.0000000  0  6G30G11G18G07G08G01
  22054609.935    -6347896.461  
  20560792.515    -3550595.367  
  20358956.923     -418828.912  
  20563519.418   -45988827.533  
  21089203.366   -57998920.102  
  21294409.202   -68264248.076  
 18  6 25  3 26 20.0000000  0  6G30G11G18G07G08G01
  22052402.886    -6359505.614  
  20559317.524    -3558350.585  
  20357697.572     -425435.177  
  20562876.793   -45992206.959  
  21090730.014   -57990897.969  
  21291762.717   -68278154.539  
 18  6 25  3 26 25.0000000  0  6G30G11G18G07G08G01
  22050193.508    -6371103.449  
  20557844.211    -3566092.414  
  20356444.478     -432025.051  
  20562237.419   -45995570.301  
  21092258.627   -57982871.040  
  21289117.338   -68292049.525  
 18  6 25  3 26 30.0000000  0  6G30G11G18G07G08G01
  22047988.656    -6382689.431  
  20556373.278    -3573820.377  
  20355194.335     -438597.997  
  20561599.996   -45998917.154  
  21093786.614   -57974838.825  
  21286476.772   -68305932.359  
 18  6 25  3 26 35.0000000  0  7G30G11G18G07G08G28G01
  22045787.049    -6394263.982  
  20554905.589    -3581534.856  
  20353946.292     -445154.455  
  20560966.104   -46002247.781  
  21095315.127   -57966801.657  
  24120527.193    48581283.794  
  21283838.018   -68319803.571  
 18  6 25  3 26 40.0000000  0  7G30G11G18G07G08G28G01
  22043585.495    -6405826.599  
  20553440.529    -3589235.396  
  20352701.451     -451693.983  
  20560335.270   -46005561.767  
  21096846.412   -57958759.132  
  24118409.348    48570172.257  
  21281199.605   -68333662.665  
 18  6 25  3 26 45.0000000  0  7G30G11G18G07G08G28G01
  22041386.852    -6417377.370  
  20551976.234    -3596922.047  
  20351460.379     -458216.504  
  20559708.063   -46008859.195  
  21098377.460   -57950711.319  
  24116296.847    48559059.236  
  21278563.101   -68347509.627  
 18  6 25  3 26 50.0000000  0  7G30G11G18G07G08G28G01
  22039191.821    -6428916.569  
  20550517.268    -3604595.097  
  20350222.204     -464722.457  
  20559083.895   -46012140.344  
  21099909.258   -57942658.569  
  24114181.947    48547944.385  
  21275932.069   -68361344.802  
 18  6 25  3 26 55.0000000  0  7G30G11G18G07G08G28G01
  22036998.235    -6440443.879  
  20549058.745    -3612254.291  
  20348988.335     -471211.487  
  20558463.462   -46015404.895  
  21101443.217   -57934600.542  
  24112059.048    48536828.129  
  21273302.052   -68375167.888  
 18  6 25  3 27  0.0000000  0  6G30G11G18G07G08G01
  22034806.360    -6451959.630  
  20547604.652    -3619899.877  
  20347755.606     -477683.872  
  20557845.169   -46018653.157  
  21102977.026   -57926537.579  
  21270673.890   -68388979.126  
 18  6 25  3 27  5.0000000  0  6G30G11G18G07G08G01
  22032618.307    -6463463.308  
  20546152.378    -3627531.374  
  20346528.415     -484139.129  
  20557229.696   -46021884.599  
  21104513.227   -57918469.148  
  21268048.262   -68402778.053  
 18  6 25  3 27 10.0000000  0  6G30G11G18G07G08G01
  22030430.812    -6474955.397  
  20544702.378    -3635149.372  
  20345301.638     -490577.833  
  20556618.358   -46025099.855  
  21106049.841   -57910395.877  
  21265425.195   -68416565.233  
 18  6 25  3 27 15.0000000  0  6G30G11G18G07G08G01
  22028246.934    -6486435.704  
  20543255.138    -3642753.583  
  20344079.911     -496999.667  
  20556009.350   -46028298.631  
  21107586.354   -57902317.533  
  21262802.598   -68430340.329  
 18  6 25  3 27 20.0000000  0  7G30G11G18G07G08G28G01
  22026064.328    -6497903.974  
  20541811.173    -3650343.763  
  20342861.888     -503404.446  
  20555403.474   -46031480.677  
  21109125.712   -57894233.879  
  24101491.028    41198756.631  
  21260185.135   -68444103.182  
 18  6 25  3 27 25.0000000  0  7G30G11G18G07G08G28G01
  22023885.275    -6509360.526  
  20540369.901    -3657920.248  
  20341646.559     -509792.464  
  20554801.723   -46034646.264  
  21110664.044   -57886145.147  
  24099368.210    41187630.282  
  21257567.076   -68457854.034  
 18  6 25  3 27 30.0000000  0  7G30G11G18G07G08G28G01
  22021706.672    -6520805.384  
  20538929.796    -3665483.128  
  20340433.254     -516163.747  
  20554201.424   -46037795.522  
  21112204.400   -57878051.442  
  24097247.130    41176502.290  
  21254952.758   -68471592.950  
 18  6 25  3 27 35.0000000  0  7G30G11G18G07G08G28G01
  22019531.792    -6532238.542  
  20537493.985    -3673032.384  
  20339223.815     -522518.287  
  20553605.706   -46040928.470  
  21113745.044   -57869952.933  
  24095129.915    41165372.407  
  21252338.872   -68485319.965  
 18  6 25  3 27 40.0000000  0  7G30G11G18G07G08G28G01
  22017356.784    -6543659.902  
  20536059.907    -3680567.913  
  20338017.110     -528856.126  
  20553012.580   -46044044.980  
  21115287.135   -57861849.410  
  24093004.990    41154240.971  
  21249729.866   -68499034.937  
 18  6 25  3 27 45.0000000  0  6G30G11G18G07G08G01
  22015187.162    -6555069.163  
  20534628.926    -3688089.378  
  20336815.648     -535176.857  
  20552422.836   -46047144.705  
  21116830.749   -57853740.600  
  21247122.526   -68512737.530  
 18  6 25  3 27 50.0000000  0  6G30G11G18G07G08G01
  22013017.418    -6566466.638  
  20533199.969    -3695597.162  
  20335616.211     -541480.810  
  20551836.547   -46050228.070  
  21118373.954   -57845626.841  
  21244518.212   -68526428.126  
 18  6 25  3 27 55.0000000  0  7G30G11G18G07G08G28G01
  22010852.278    -6577852.300  
  20531773.755    -3703091.205  
  20334419.945     -547767.850  
  20551252.000   -46053294.937  
  21119919.187   -57837508.132  
  24086657.598    33730960.728  
  21241915.640   -68540106.604  
 18  6 25  3 28  0.0000000  0  7G30G11G18G07G08G28G01
  22008686.294    -6589226.137  
  20530351.992    -3710571.525  
  20333226.414     -554038.183  
  20550671.475   -46056345.415  
  21121465.867   -57829384.431  
  24084538.549    33719823.157  
  21239314.513   -68553773.039  
 18  6 25  3 28  5.0000000  0  7G30G11G18G07G08G28G01
  22006522.670    -6600587.829  
  20528931.015    -3718037.821  
  20332036.388     -560291.378  
  20550094.597   -46059379.119  
  21123011.757   -57821255.410  
  24082420.571    33708683.674  
  21236715.174   -68567427.130  
 18  6 25  3 28 10.0000000  0  7G30G11G18G07G08G28G01
  22004364.089    -6611937.619  
  20527512.649    -3725490.283  
  20330849.974     -566527.705  
  20549520.330   -46062396.307  
  21124560.259   -57813121.392  
  24080297.477    33697542.567  
  21234119.448   -68581069.048  
 18  6 25  3 28 15.0000000  0  7G30G11G18G07G08G28G01
  22002207.144    -6623275.518  
  20526097.063    -3732928.976  
  20329666.912     -572747.101  
  20548949.702   -46065396.971  
  21126108.823   -57804982.417  
  24078168.864    33686399.719  
  21231527.360   -68594698.771  
 18  6 25  3 28 20.0000000  0  6G30G11G18G07G08G01
  22000051.527    -6634601.597  
  20524684.236    -3740353.967  
  20328486.752     -578949.749  
  20548382.261   -46068381.247  
  21127658.856   -57796838.488  
  21228935.169   -68608316.433  
 18  6 25  3 28 25.0000000  0  6G30G11G18G07G08G01
  21997898.495    -6645915.719  
  20523273.279    -3747765.123  
  20327309.750     -585135.524  
  20547817.264   -46071348.952  
  21129210.045   -57788689.604  
  21226346.136   -68621921.905  
 18  6 25  3 28 30.0000000  0  7G30G11G18G07G08G28G01
  21995747.814    -6657217.921  
  20521865.102    -3755162.468  
  20326135.529     -591304.373  
  20547255.333   -46074300.175  
  21130760.294   -57780535.732  
  24071814.134    33652813.232  
  21223759.597   -68635515.214  
 18  6 25  3 28 35.0000000  0  7G30G11G18G07G08G28G01
  21993600.767    -6668508.144  
  20520460.559    -3762545.913  
  20324963.939     -597456.243  
  20546697.035   -46077234.812  
  21132313.461   -57772376.880  
  24069687.836    33641663.856  
  21221174.117   -68649096.225  
 18  6 25  3 28 40.0000000  0  7G30G11G18G07G08G28G01
  21991453.529    -6679786.198  
  20519058.830    -3769915.390  
  20323797.596     -603591.040  
  20546141.265   -46080152.628  
  21133865.578   -57764212.892  
  24067567.642    33630512.939  
  21218593.167   -68662664.827  
 18  6 25  3 28 45.0000000  0  7G30G11G18G07G08G28G01
  21989310.478    -6691052.243  
  20517659.142    -3777271.032  
  20322632.722     -609708.853  
  20545589.826   -46083053.898  
  21135420.452   -57756043.952  
  24065447.200    33619360.385  
  21216012.398   -68676221.189  
 18  6 25  3 28 50.0000000  0  7G30G11G18G07G08G28G01
  21987169.334    -6702306.303  
  20516260.788    -3784612.830  
  20321471.185     -615809.754  
  20545040.866   -46085938.636  
  21136975.945   -57747870.064  
  24063324.085    33608206.210  
  21213435.825   -68689765.306  
 18  6 25  3 28 55.0000000  0  7G30G11G18G07G08G28G01
  21985028.794    -6713548.208  
  20514867.760    -3791940.655  
  20320313.973     -621893.612  
  20544495.086   -46088806.672  
  21138533.616   -57739690.992  
  24061200.001    33597050.525  
  21210862.289   -68703296.975  
 18  6 25  3 29  0.0000000  0  7G30G11G18G07G08G28G01
  21982890.980    -6724778.432  
  20513475.454    -3799254.950  
  20319160.059     -627960.866  
  20543952.031   -46091658.528  
  21140089.719   -57731507.460  
  24059076.925    33585892.932  
  21208288.188   -68716816.735  
 18  6 25  3 29  5.0000000  0  7G30G11G18G07G08G28G01
  21980756.987    -6735996.341  
  20512085.110    -3806555.128  
  20318008.249     -634010.910  
  20543413.513   -46094493.467  
  21141648.786   -57723318.607  
  24056948.656    33574733.972  
  21205717.764   -68730323.868  
 18  6 25  3 29 10.0000000  0  7G30G11G18G07G08G28G01
  21978624.339    -6747202.255  
  20510699.402    -3813841.491  
  20316860.932     -640043.992  
  20542876.912   -46097311.887  
  21143208.482   -57715124.801  
  24054830.603    33563573.345  
  21203149.402   -68743818.783  
 18  6 25  3 29 15.0000000  0  7G30G11G18G07G08G28G01
  21976494.133    -6758396.184  
  20509315.564    -3821114.017  
  20315715.056     -646060.169  
  20542343.183   -46100113.805  
  21144767.901   -57706926.237  
  24052706.694    33552410.974  
  21200584.483   -68757301.370  
 18  6 25  3 29 20.0000000  0  7G30G11G18G07G08G28G01
  21974366.220    -6769577.781  
  20507933.732    -3828372.487  
  20314573.761     -652059.138  
  20541813.034   -46102898.899  
  21146329.756   -57698722.496  
  24050584.217    33541247.217  
  21198021.713   -68770771.435  
 18  6 25  3 29 25.0000000  0  7G30G11G18G07G08G28G01
  21972240.288    -6780747.711  
  20506555.455    -3835617.516  
  20313435.163     -658041.457  
  20541286.441   -46105667.794  
  21147891.160   -57690514.230  
  24048460.146    33530081.400  
  21195459.923   -68784229.545  
 18  6 25  3 29 30.0000000  0  7G30G11G18G07G08G28G01
  21970117.315    -6791905.471  
  20505179.708    -3842848.580  
  20312300.240     -664006.743  
  20540762.806   -46108420.016  
  21149453.662   -57682301.015  
  24046330.877    33518914.129  
  21192901.521   -68797675.220  
 18  6 25  3 29 35.0000000  0  7G30G11G18G07G08G28G01
  21967995.990    -6803051.370  
  20503805.466    -3850066.044  
  20311168.109     -669955.298  
  20540241.677   -46111155.843  
  21151018.814   -57674083.141  
  24044208.264    33507744.952  
  21190345.912   -68811108.727  
 18  6 25  3 29 40.0000000  0  7G30G11G18G07G08G28G01
  21965878.219    -6814185.125  
  20502434.635    -3857269.572  
  20310040.105     -675886.786  
  20539724.819   -46113875.014  
  21152582.369   -57665860.356  
  24042079.761    33496574.249  
  21187792.569   -68824529.841  
 18  6 25  3 29 45.0000000  0  7G30G11G18G07G08G28G01
  21963761.565    -6825306.374  
  20501066.638    -3864458.853  
  20308914.363     -681800.990  
  20539209.936   -46116577.287  
  21154149.045   -57657632.407  
  24039952.375    33485402.232  
  21185239.914   -68837938.204  
 18  6 25  3 29 50.0000000  0  7G30G11G18G07G08G28G01
  21961647.572    -6836415.986  
  20499701.731    -3871634.727  
  20307791.568     -687698.602  
  20538699.145   -46119263.377  
  21155714.947   -57649399.938  
  24037827.650    33474228.042  
  21182691.351   -68851334.612  
 18  6 25  3 29 55.0000000  0  7G30G11G09G18G07G08G01
  21959536.780    -6847513.001  
  20498339.740    -3878796.195  
  24725244.206    23551059.322  
  20306673.119     -693578.750  
  20538191.126   -46121932.365  
  21157284.050   -57641162.167  
  21180143.700   -68864718.147  
 18  6 25  3 30  0.0000000  0  7G30G11G09G18G07G08G01
  21957426.930    -6858598.237  
  20496978.117    -3885944.169  
  24727595.818    23563439.866  
  20305557.327     -699442.281  
  20537686.337   -46124585.121  
  21158851.519   -57632919.934  
  21177599.851   -68878089.640  
 18  6 25  3 30  5.0000000  0  7G30G11G09G18G07G08G01
  21955319.481    -6869671.188  
  20495621.901    -3893078.131  
  24729951.120    23575818.580  
  20304444.368     -705288.558  
  20537184.094   -46127221.088  
  21160420.531   -57624672.764  
  21175055.973   -68891448.530  
 18  6 25  3 30 10.0000000  0  7G30G11G09G18G07G08G01
  21953213.560    -6880731.737  
  20494266.354    -3900198.003  
  24732307.521    23588195.502  
  20303336.370     -711117.654  
  20536686.670   -46129840.264  
  21161990.642   -57616420.536  
  21172517.914   -68904794.768  
 18  6 25  3 30 15.0000000  0  7G30G11G09G18G07G08G01
  21951112.437    -6891780.533  
  20492913.458    -3907304.399  
  24734661.422    23600569.969  
  20302229.592     -716930.187  
  20536191.038   -46132443.227  
  21163560.828   -57608163.821  
  21169979.645   -68918128.962  
 18  6 25  3 30 20.0000000  0  7G30G11G09G18G07G08G01
  21949012.794    -6902816.712  
  20491564.190    -3914396.452  
  24737014.513    23612942.855  
  20301126.013     -722725.189  
  20535698.747   -46135029.095  
  21165134.927   -57599901.898  
  21167444.574   -68931450.259  
 18  6 25  3 30 25.0000000  0  7G30G11G09G18G07G08G01
  21946913.429    -6913840.800  
  20490217.058    -3921474.716  
  24739367.310    23625313.600  
  20300027.003     -728503.247  
  20535210.167   -46137598.450  
  21166707.586   -57591635.178  
  21164914.215   -68944759.192  
 18  6 25  3 30 30.0000000  0  7G30G11G09G18G07G08G01
  21944818.756    -6924852.449  
  20488872.903    -3928538.818  
  24741721.651    23637682.593  
  20298930.682     -734264.103  
  20534724.133   -46140150.917  
  21168281.218   -57583363.459  
  21162382.826   -68958055.393  
 18  6 25  3 30 35.0000000  0  7G30G11G09G18G07G08G01
  21942725.628    -6935852.188  
  20487531.150    -3935589.352  
  24744077.537    23650049.134  
  20297836.908     -740008.150  
  20534241.934   -46142687.073  
  21169856.395   -57575087.277  
  21159854.698   -68971339.379  
 18  6 25  3 30 40.0000000  0  7G30G11G09G18G07G08G01
  21940634.635    -6946839.548  
  20486191.963    -3942625.864  
  24746430.980    23662413.767  
  20296746.700     -745735.068  
  20533761.727   -46145206.480  
  21171432.419   -57566806.200  
  21157327.991   -68984610.736  
 18  6 25  3 30 45.0000000  0  8G28G30G11G09G18G07G08G01
  24014420.161    74191065.688  
  21938544.868    -6957814.390  
  20484855.574    -3949648.168  
  24748782.070    23674776.524  
  20295661.725     -751444.557  
  20533286.323   -46147708.932  
  21173008.952   -57558520.011  
  21154804.655   -68997869.269  
 18  6 25  3 30 50.0000000  0  8G28G30G11G09G18G07G08G01
  24012289.358    74179872.496  
  21936461.572    -6968777.307  
  20483522.366    -3956656.867  
  24751133.192    23687136.925  
  20294577.353     -757137.343  
  20532813.097   -46150195.038  
  21174586.806   -57550229.419  
  21152284.785   -69011115.552  
 18  6 25  3 30 55.0000000  0  8G28G30G11G09G18G07G08G01
  24010158.161    74168677.798  
  21934376.594    -6979727.886  
  20482191.626    -3963651.530  
  24753488.071    23699495.335  
  20293497.882     -762812.928  
  20532343.055   -46152664.384  
  21176165.983   -57541934.007  
  21149767.670   -69024349.229  
 18  6 25  3 31  0.0000000  0  8G28G30G11G09G18G07G08G01
  24008025.474    74157481.494  
  21932294.847    -6990666.107  
  20480863.544    -3970632.235  
  24755838.310    23711851.668  
  20292421.213     -768471.413  
  20531876.100   -46155116.985  
  21177744.241   -57533633.745  
  21147250.923   -69037570.237  
 18  6 25  3 31  5.0000000  0  8G28G30G11G09G18G07G08G01
  24005894.873    74146283.593  
  21930216.475    -7001592.059  
  20479537.549    -3977599.019  
  24758190.350    23724205.794  
  20291346.488     -774112.821  
  20531413.093   -46157552.949  
  21179325.159   -57525328.733  
  21144738.411   -69050778.704  
 18  6 25  3 31 10.0000000  0  8G28G30G11G09G18G07G08G01
  24003763.733    74135084.155  
  21928139.280    -7012505.711  
  20478214.306    -3984551.897  
  24760540.562    23736557.738  
  20290277.518     -779737.157  
  20530952.694   -46159972.234  
  21180906.825   -57517018.949  
  21142226.789   -69063974.598  
 18  6 25  3 31 15.0000000  0  8G28G30G11G09G18G07G08G01
  24001635.573    74123883.103  
  21926064.064    -7023407.016  
  20476894.901    -3991490.752  
  24762891.609    23748907.634  
  20289210.242     -785344.299  
  20530494.703   -46162374.776  
  21182488.895   -57508704.406  
  21139718.577   -69077157.811  
 18  6 25  3 31 20.0000000  0  8G28G30G11G09G18G07G08G01
  23999502.878    74112680.540  
  21923991.468    -7034295.925  
  20475575.684    -3998415.621  
  24765243.272    23761255.441  
  20288146.015     -790934.339  
  20530040.906   -46164760.583  
  21184071.726   -57500385.092  
  21137212.269   -69090328.345  
 18  6 25  3 31 25.0000000  0  8G28G30G11G09G18G07G08G01
  23997371.510    74101476.209  
  21921922.059    -7045172.635  
  20474260.369    -4005326.653  
  24767589.393    23773600.923  
  20287086.977     -796507.373  
  20529589.293   -46167129.831  
  21185655.882   -57492061.088  
  21134706.858   -69103486.337  
 18  6 25  3 31 30.0000000  0  8G28G30G11G09G18G07G08G01
  23995238.397    74090270.279  
  21919854.911    -7056037.011  
  20472947.745    -4012223.728  
  24769939.493    23785944.215  
  20286029.200     -802063.258  
  20529143.091   -46169482.407  
  21187240.154   -57483732.394  
  21132206.715   -69116631.728  
 18  6 25  3 31 35.0000000  0  8G28G30G11G09G18G07G08G01
  23993105.775    74079062.869  
  21917790.830    -7066888.868  
  20471638.760    -4019106.743  
  24772288.081    23798285.404  
  20284973.917     -807601.931  
  20528698.524   -46171818.153  
  21188827.350   -57475398.881  
  21129706.776   -69129764.319  
 18  6 25  3 31 40.0000000  0  8G28G30G11G09G18G07G08G01
  23990969.908    74067853.829  
  21915727.798    -7077728.475  
  20470332.398    -4025975.854  
  24774637.288    23810624.297  
  20283924.405     -813123.558  
  20528256.580   -46174137.280  
  21190414.163   -57467060.713  
  21127210.747   -69142884.344  
 18  6 25  3 31 45.0000000  0  8G28G30G11G09G18G07G08G01
  23988834.421    74056643.229  
  21913667.576    -7088555.692  
  20469025.556    -4032831.012  
  24776985.156    23822960.916  
  20282876.702     -818628.041  
  20527818.592   -46176439.698  
  21192000.782   -57458717.836  
  21124716.099   -69155991.693  
 18  6 25  3 31 50.0000000  0  8G28G30G11G09G18G07G08G01
  23986700.213    74045431.179  
  21911609.350    -7099370.384  
  20467724.858    -4039672.029  
  24779333.446    23835295.482  
  20281831.137     -824115.218  
  20527384.030   -46178725.266  
  21193589.540   -57450370.147  
  21122225.306   -69169086.185  
 18  6 25  3 31 55.0000000  0  8G28G30G11G09G18G07G08G01
  23984570.043    74034217.514  
  21909554.590    -7110172.654  
  20466425.480    -4046499.073  
  24781680.479    23847627.786  
  20280791.614     -829585.180  
  20526952.790   -46180994.111  
  21195178.615   -57442017.717  
  21119733.828   -69182167.978  
 18  6 25  3 32  0.0000000  0  8G28G30G11G09G18G07G08G01
  23982437.361    74023002.105  
  21907500.609    -7120962.652  
  20465129.171    -4053312.270  
  24784027.004    23859957.721  
  20279753.729     -835038.189  
  20526523.046   -46183246.355  
  21196767.468   -57433660.724  
  21117248.425   -69195237.161  
 18  6 25  3 32  5.0000000  0  8G28G30G11G09G18G07G08G01
  23980301.900    74011785.140  
  21905449.858    -7131740.108  
  20463836.091    -4060111.436  
  24786371.035    23872285.459  
  20278720.505     -840473.909  
  20526098.678   -46185481.767  
  21198360.124   -57425298.980  
  21114762.818   -69208293.542  
 18  6 25  3 32 10.0000000  0  8G28G30G11G09G18G07G08G01
  23978166.105    74000566.437  
  21903400.633    -7142505.348  
  20462543.966    -4066896.786  
  24788715.305    23884610.727  
  20277689.093     -845892.588  
  20525675.693   -46187700.630  
  21199952.445   -57416932.651  
  21112280.883   -69221337.309  
 18  6 25  3 32 15.0000000  0  8G28G30G11G09G18G07G08G01
  23976030.362    73989346.199  
  21901354.895    -7153258.101  
  20461255.041    -4073668.161  
  24791060.342    23896933.741  
  20276660.452     -851294.211  
  20525257.196   -46189902.767  
  21201544.533   -57408561.776  
  21109801.720   -69234368.350  
 18  6 25  3 32 20.0000000  0  8G28G30G11G09G18G07G08G01
  23973892.290    73978124.520  
  21899311.550    -7163998.297  
  20459969.654    -4080425.450  
  24793404.196    23909254.529  
  20275635.922     -856678.505  
  20524841.379   -46192088.050  
  21203138.156   -57400186.150  
  21107324.234   -69247386.514  
 18  6 25  3 32 25.0000000  0  8G28G30G11G09G18G07G08G01
  23971754.891    73966901.307  
  21897269.880    -7174726.033  
  20458685.512    -4087168.687  
  24795745.288    23921573.027  
  20274614.496     -862045.601  
  20524427.808   -46194256.587  
  21204734.454   -57391805.861  
  21104849.281   -69260391.907  
 18  6 25  3 32 30.0000000  0  8G28G30G11G09G18G07G08G01
  23969618.454    73955676.566  
  21895229.314    -7185441.183  
  20457406.053    -4093897.938  
  24798087.341    23933889.279  
  20273597.181     -867395.435  
  20524018.920   -46196408.250  
  21206330.141   -57383420.773  
  21102377.723   -69273384.392  
 18  6 25  3 32 35.0000000  0  8G28G30G11G09G18G07G08G01
  23967488.792    73944450.637  
  21893194.665    -7196143.460  
  20456127.358    -4100612.721  
  24800430.017    23946203.584  
  20272581.204     -872727.702  
  20523612.943   -46198542.779  
  21207924.875   -57375030.726  
  21099906.787   -69286363.672  
 18  6 25  3 32 40.0000000  0  8G28G30G11G09G18G07G08G01
  23965355.258    73933222.905  
  21891158.433    -7206833.510  
  20454853.234    -4107313.766  
  24802776.835    23958515.272  
  20271569.510     -878043.034  
  20523209.533   -46200660.828  
  21209523.322   -57366636.179  
  21097440.278   -69299330.404  
 18  6 25  3 32 45.0000000  0  8G28G30G11G09G18G07G08G01
  23963218.196    73921993.361  
  21889127.402    -7217511.178  
  20453579.875    -4114000.947  
  24805115.974    23970824.380  
  20270562.302     -883341.275  
  20522809.750   -46202762.287  
  21211122.246   -57358237.219  
  21094975.106   -69312284.463  
 18  6 25  3 32 50.0000000  0  8G28G30G11G09G18G07G08G01
  23961080.148    73910761.975  
  21887097.389    -7228176.679  
  20452310.968    -4120674.476  
  24807459.708    23983130.770  
  20269557.542     -888622.711  
  20522412.702   -46204847.332  
  21212721.187   -57349833.983  
  21092511.524   -69325226.026  
 18  6 25  3 32 55.0000000  0  8G28G30G11G09G18G07G08G01
  23958940.228    73899529.210  
  21885070.798    -7238829.475  
  20451043.193    -4127333.795  
  24809801.570    23995434.901  
  20268554.774     -893886.807  
  20522019.505   -46206915.480  
  21214320.402   -57341425.901  
  21090051.650   -69338154.587  
 18  6 25  3 33  0.0000000  0  8G28G30G11G09G18G07G08G01
  23956803.100    73888294.890  
  21883045.138    -7249469.782  
  20449779.211    -4133979.133  
  24812144.364    24007736.627  
  20267557.659     -899133.644  
  20521629.529   -46208966.838  
  21215922.695   -57333013.354  
  21087594.282   -69351070.321  
 18  6 25  3 33  5.0000000  0  8G28G30G11G09G18G07G08G01
  23954665.092    73877059.066  
  21881023.607    -7260097.453  
  20448516.926    -4140610.425  
  24814485.276    24020035.998  
  20266560.952     -904363.238  
  20521242.680   -46211001.347  
  21217522.105   -57324596.191  
  21085138.754   -69363973.083  
 18  6 25  3 33 10.0000000  0  8G28G30G11G09G18G07G08G01
  23952528.015    73865821.612  
  21879003.436    -7270712.594  
  20447257.432    -4147227.706  
  24816826.404    24032332.921  
  20265570.327     -909575.618  
  20520858.622   -46213019.085  
  21219125.022   -57316174.448  
  21082686.588   -69376863.004  
 18  6 25  3 33 15.0000000  0  8G28G30G11G09G18G07G08G01
  23950389.552    73854582.405  
  21876986.602    -7281315.289  
  20446001.846    -4153831.143  
  24819166.576    24044627.202  
  20264581.036     -914770.886  
  20520476.899   -46215020.219  
  21220728.556   -57307748.187  
  21080235.327   -69389740.164  
 18  6 25  3 33 20.0000000  0  8G28G30G11G09G18G07G08G01
  23948250.327    73843341.618  
  21874970.149    -7291905.412  
  20444747.788    -4160420.581  
  24821506.127    24056919.000  
  20263596.849     -919948.954  
  20520100.137   -46217004.571  
  21222333.331   -57299317.363  
  21077785.592   -69402604.410  
 18  6 25  3 33 25.0000000  0  8G28G30G11G09G18G07G08G01
  23946109.590    73832099.200  
  21872958.481    -7302483.055  
  20443497.512    -4166996.020  
  24823844.740    24069208.271  
  20262613.582     -925109.854  
  20519725.154   -46218972.263  
  21223939.170   -57290882.121  
  21075342.931   -69415455.846  
 18  6 25  3 33 30.0000000  0  8G28G30G11G09G18G07G08G01
  23943968.804    73820855.321  
  21870947.623    -7313048.074  
  20442246.185    -4173557.436  
  24826182.445    24081495.040  
  20261635.419     -930253.478  
  20519353.986   -46220923.112  
  21225546.677   -57282442.306  
  21072898.933   -69428294.302  
 18  6 25  3 33 35.0000000  0  8G28G30G11G09G18G07G08G01
  23941827.414    73809610.078  
  21868939.881    -7323600.258  
  20441003.556    -4180104.603  
  24828518.830    24093779.537  
  20260657.652     -935379.685  
  20518986.077   -46222856.984  
  21227151.862   -57273997.703  
  21070457.050   -69441119.640  
 18  6 25  3 33 40.0000000  0  8G28G30G11G09G18G07G08G01
  23939687.117    73798363.376  
  21866933.232    -7334139.789  
  20439758.299    -4186637.686  
  24830858.313    24106061.616  
  20259687.418     -940488.572  
  20518620.550   -46224774.016  
  21228758.857   -57265548.498  
  21068020.696   -69453931.974  
 18  6 25  3 33 45.0000000  0  8G28G30G11G09G18G07G08G01
  23937550.647    73787115.109  
  21864931.268    -7344666.581  
  20438516.582    -4193156.614  
  24833193.751    24118341.203  
  20258718.577     -945580.162  
  20518259.707   -46226674.130  
  21230367.961   -57257094.678  
  21065585.593   -69466731.234  
 18  6 25  3 33 50.0000000  0  8G28G30G11G09G18G07G08G01
  23935408.535    73775865.292  
  21862929.958    -7355180.714  
  20437280.099    -4199661.523  
  24835531.274    24130618.307  
  20257752.108     -950654.407  
  20517901.093   -46228557.431  
  21231976.717   -57248636.334  
  21063151.430   -69479517.516  
 18  6 25  3 33 55.0000000  0  8G28G30G11G09G18G07G08G01
  23933269.216    73764613.738  
  21860931.871    -7365682.361  
  20436044.119    -4206152.491  
  24837865.009    24142892.699  
  20256790.866     -955711.513  
  20517545.844   -46230424.079  
  21233587.838   -57240173.621  
  21060720.490   -69492290.966  
 18  6 25  3 34  0.0000000  0  8G28G30G11G09G18G07G08G01
  23931124.954    73753360.704  
  21858934.994    -7376171.320  
  20434812.068    -4212629.424  
  24840197.235    24155164.544  
  20255831.977     -960751.423  
  20517194.094   -46232273.913  
  21235199.023   -57231706.370  
  21058293.478   -69505051.435  
 18  6 25  3 34  5.0000000  0  8G28G30G11G09G18G07G08G01
  23928980.931    73742106.155  
  21856942.362    -7386647.580  
  20433582.260    -4219092.288  
  24842530.129    24167433.907  
  20254875.617     -965774.002  
  20516845.446   -46234106.930  
  21236811.879   -57223234.558  
  21055866.563   -69517798.863  
 18  6 25  3 34 10.0000000  0  8G28G30G11G09G18G07G08G01
  23926836.327    73730850.187  
  21854951.152    -7397111.041  
  20432355.018    -4225540.960  
  24844863.300    24179700.722  
  20253923.827     -970779.142  
  20516499.078   -46235922.995  
  21238424.439   -57214758.093  
  21053442.786   -69530533.126  
 18  6 25  3 34 15.0000000  0  8G28G30G11G09G18G07G08G01
  23924699.699    73719592.697  
  21852961.480    -7407561.720  
  20431131.460    -4231975.524  
  24847199.297    24191965.027  
  20252974.147     -975767.009  
  20516157.109   -46237722.244  
  21240037.964   -57206277.103  
  21051022.264   -69543254.313  
 18  6 25  3 34 20.0000000  0  8G28G30G11G09G18G07G08G01
  23922557.266    73708333.561  
  21850976.305    -7417999.757  
  20429910.109    -4238396.070  
  24849536.356    24204226.685  
  20252028.249     -980737.533  
  20515817.777   -46239504.649  
  21241652.839   -57197791.730  
  21048604.379   -69555962.468  
 18  6 25  3 34 25.0000000  0  8G28G30G11G09G18G07G08G01
  23920415.886    73697072.692  
  21848992.755    -7428425.307  
  20428689.812    -4244802.836  
  24851869.747    24216485.430  
  20251085.836     -985691.125  
  20515481.931   -46241270.524  
  21243268.910   -57189302.072  
  21046187.833   -69568657.824  
 18  6 25  3 34 30.0000000  0  8G28G30G11G09G18G07G08G01
  23918271.129    73685810.281  
  21847011.696    -7438838.165  
  20427474.438    -4251195.497  
  24854203.624    24228741.570  
  20250146.915     -990627.352  
  20515148.146   -46243019.589  
  21244886.183   -57180807.997  
  21043773.921   -69581340.131  
 18  6 25  3 34 35.0000000  0  8G28G30G11G09G18G07G08G01
  23916126.365    73674546.483  
  21845031.201    -7449238.154  
  20426259.771    -4257573.995  
  24856536.492    24240995.200  
  20249210.562     -995546.214  
  20514819.647   -46244751.667  
  21246502.876   -57172309.274  
  21041363.435   -69594009.256  
 18  6 25  3 34 40.0000000  0  8G28G30G11G09G18G07G08G01
  23913984.008    73663281.185  
  21843054.545    -7459625.261  
  20425048.656    -4263938.329  
  24858866.903    24253246.167  
  20248276.616    -1000447.651  
  20514492.268   -46246466.863  
  21248121.118   -57163806.021  
  21038957.073   -69606665.155  
 18  6 25  3 34 45.0000000  0  8G28G30G11G09G18G07G08G01
  23911836.157    73652014.329  
  21841080.980    -7469999.682  
  20423839.059    -4270288.624  
  24861199.832    24265494.537  
  20247348.481    -1005331.708  
  20514169.269   -46248165.207  
  21249740.448   -57155298.319  
  21036550.083   -69619308.003  
 18  6 25  3 34 50.0000000  0  8G28G30G11G09G18G07G08G01
  23909692.137    73640746.071  
  21839109.385    -7480361.227  
  20422634.294    -4276624.757  
  24863530.726    24277740.247  
  20246422.602    -1010198.428  
  20513849.670   -46249846.618  
  21251359.888   -57146786.157  
  21034147.352   -69631937.666  
 18  6 25  3 34 55.0000000  0  8G28G30G11G09G18G07G08G01
  23907551.763    73629476.305  
  21837139.720    -7490709.979  
  20421431.029    -4282946.800  
  24865861.259    24289983.367  
  20245498.938    -1015047.805  
  20513533.432   -46251511.148  
  21252980.113   -57138269.471  
  21031745.549   -69644554.140  
 18  6 25  3 35  0.0000000  0  7G28G30G11G18G07G08G01
  23905407.620    73618204.877  
  21835172.009    -7501046.002  
  20420230.434    -4289254.788  
  20244579.233    -1019879.950  
  20513221.438   -46253158.947  
  21254601.434   -57129748.385  
  21029346.131   -69657157.579  
 18  6 25  3 35  5.0000000  0  8G28G30G11G09G18G07G08G01
  23903263.121    73606931.879  
  21833208.808    -7511369.237  
  20419032.774    -4295548.725  
  24870522.444    38455811.760  
  20243664.180    -1024694.720  
  20512909.088   -46254789.868  
  21256222.685   -57121222.907  
  21026950.505   -69669747.851  
 18  6 25  3 35 10.0000000  0  8G28G30G11G09G18G07G08G01
  23901117.544    73595657.264  
  21831246.817    -7521679.778  
  20417837.470    -4301828.727  
  24872846.200    38468046.956  
  20242750.338    -1029492.313  
  20512601.813   -46256404.104  
  21257847.866   -57112693.147  
  21024557.808   -69682325.083  
 18  6 25  3 35 15.0000000  0  8G28G30G11G09G18G07G08G01
  23898970.743    73584381.209  
  21829287.467    -7531977.420  
  20416645.809    -4308094.542  
  24875172.596    38480279.023  
  20241840.567    -1034272.524  
  20512297.750   -46258001.382  
  21259471.252   -57104158.918  
  21022167.036   -69694889.121  
 18  6 25  3 35 20.0000000  0  8G28G30G11G09G18G07G08G01
  23896821.733    73573103.520  
  21827329.055    -7542262.473  
  20415455.943    -4314346.491  
  24877498.929    38492508.095  
  20240934.167    -1039035.527  
  20511998.489   -46259582.054  
  21261095.718   -57095620.506  
  21019779.634   -69707440.159  
 18  6 25  3 35 25.0000000  0  8G28G30G11G09G18G07G08G01
  23894676.727    73561824.457  
  21825375.363    -7552534.442  
  20414268.365    -4320584.114  
  24879823.828    38504734.598  
  20240032.057    -1043781.075  
  20511700.084   -46261145.631  
  21262722.615   -57087077.471  
  21017393.375   -69719977.793  
 18  6 25  3 35 30.0000000  0  8G28G30G11G09G18G07G08G01
  23892530.159    73550543.723  
  21823423.544    -7562793.757  
  20413084.949    -4326807.840  
  24882149.169    38516958.164  
  20239131.391    -1048509.397  
  20511406.986   -46262692.524  
  21264348.237   -57078530.290  
  21015009.991   -69732502.394  
 18  6 25  3 35 35.0000000  0  8G28G30G11G09G18G07G08G01
  23890384.367    73539261.692  
  21821473.072    -7573039.960  
  20411904.026    -4333017.218  
  24884474.570    38529179.198  
  20238234.648    -1053220.110  
  20511114.664   -46264222.307  
  21265975.779   -57069978.419  
  21012628.097   -69745013.547  
 18  6 25  3 35 40.0000000  0  8G28G30G11G09G18G07G08G01
  23888238.084    73527978.003  
  21819525.543    -7583273.406  
  20410724.472    -4339212.667  
  24886795.617    38541397.367  
  20237342.566    -1057913.568  
  20510826.000   -46265735.339  
  21267603.545   -57061422.323  
  21010251.149   -69757511.614  
 18  6 25  3 35 45.0000000  0  8G28G30G11G09G18G07G08G01
  23886087.848    73516692.705  
  21817580.216    -7593494.053  
  20409548.406    -4345394.058  
  24889119.007    38553612.547  
  20236452.398    -1062589.826  
  20510541.254   -46267231.593  
  21269231.938   -57052861.917  
  21007874.829   -69769996.509  
 18  6 25  3 35 50.0000000  0  8G28G30G11G09G18G07G08G01
  23883940.335    73505406.083  
  21815638.612    -7603701.676  
  20408373.918    -4351561.218  
  24891442.258    38565825.158  
  20235565.954    -1067248.492  
  20510260.518   -46268710.760  
  21270861.622   -57044296.942  
  21005501.517   -69782467.972  
 18  6 25  3 35 55.0000000  0  8G28G30G11G09G18G07G08G01
  23881792.183    73494117.856  
  21813699.088    -7613896.536  
  20407203.656    -4357714.434  
  24893759.433    38578034.683  
  20234682.734    -1071889.927  
  20509982.291   -46270173.236  
  21272493.673   -57035727.801  
  21003129.712   -69794926.342  
 18  6 25  3 36  0.0000000  0  8G28G30G11G09G18G07G08G01
  23879644.370    73482828.130  
  21811760.904    -7624078.441  
  20406034.735    -4363853.479  
  24896076.802    38590241.548  
  20233802.715    -1076513.930  
  20509706.692   -46271618.772  
  21274123.486   -57027154.269  
  21000762.538   -69807371.402  
 18  6 25  3 36  5.0000000  0  8G28G30G11G09G18G07G08G01
  23877492.988    73471536.991  
  21809826.164    -7634247.196  
  20404870.831    -4369978.185  
  24898396.328    38602445.651  
  20232925.997    -1081120.403  
  20509435.253   -46273047.252  
  21275756.314   -57018576.064  
  20998397.092   -69819802.963  
 18  6 25  3 36 10.0000000  0  8G28G30G11G09G18G07G08G01
  23875347.247    73460244.328  
  21807893.630    -7644403.163  
  20403707.272    -4376088.968  
  24900723.927    38614646.745  
  20232052.200    -1085709.636  
  20509165.447   -46274458.970  
  21277390.775   -57009993.744  
  20996032.992   -69832221.406  
 18  6 25  3 36 15.0000000  0  8G28G30G11G09G18G07G08G01
  23873199.572    73448950.088  
  21805963.168    -7654546.209  
  20402547.217    -4382185.596  
  24903062.183    38626844.959  
  20231183.050    -1090281.397  
  20508902.149   -46275853.810  
  21279023.731   -57001407.111  
  20993673.254   -69844626.517  
 18  6 25  3 36 20.0000000  0  8G28G30G11G09G18G07G08G01
  23871047.562    73437654.193  
  21804034.954    -7664676.375  
  20401387.980    -4388268.221  
  24905385.517    38639040.140  
  20230315.721    -1094835.922  
  20508638.810   -46277231.857  
  21280658.220   -56992816.253  
  20991315.479   -69857018.422  
 18  6 25  3 36 25.0000000  0  8G28G30G11G09G18G07G08G01
  23868897.217    73426357.075  
  21802111.123    -7674793.395  
  20400234.413    -4394336.502  
  24907706.508    38651232.714  
  20229452.487    -1099372.839  
  20508379.710   -46278592.784  
  21282294.087   -56984220.878  
  20988959.654   -69869396.799  
 18  6 25  3 36 30.0000000  0  8G28G30G11G09G18G07G08G01
  23866745.963    73415058.305  
  21800187.529    -7684897.574  
  20399082.370    -4400390.777  
  24910026.018    38663422.092  
  20228591.922    -1103892.532  
  20508124.854   -46279936.999  
  21283931.764   -56975621.341  
  20986606.783   -69881761.943  
 18  6 25  3 36 35.0000000  0  8G28G30G11G09G18G07G08G01
  23864596.971    73403758.380  
  21798266.911    -7694988.489  
  20397933.304    -4406430.621  
  24912344.784    38675608.850  
  20227736.194    -1108394.444  
  20507871.113   -46281264.000  
  21285568.555   -56967017.202  
  20984257.462   -69894113.500  
 18  6 25  3 36 40.0000000  0  8G28G30G11G09G18G07G08G01
  23862445.463    73392456.532  
  21796348.213    -7705066.728  
  20396786.444    -4412456.683  
  24914663.897    38687792.361  
  20226882.959    -1112879.367  
  20507622.156   -46282574.429  
  21287206.407   -56958409.067  
  20981908.773   -69906452.000  
 18  6 25  3 36 45.0000000  0  8G28G30G11G09G18G07G08G01
  23860296.214    73381153.546  
  21794433.492    -7715131.674  
  20395641.414    -4418468.286  
  24916980.118    38699973.176  
  20226032.556    -1117346.510  
  20507376.029   -46283867.656  
  21288845.373   -56949796.396  
  20979562.344   -69918776.831  
 18  6 25  3 36 50.0000000  0  8G28G30G11G09G18G07G08G01
  23858145.030    73369848.749  
  21792521.558    -7725183.934  
  20394500.889    -4424466.119  
  24919295.978    38712150.696  
  20225184.940    -1121796.582  
  20507132.547   -46285144.375  
  21290485.124   -56941179.749  
  20977220.132   -69931088.634  
 18  6 25  3 36 55.0000000  0  8G28G30G11G09G18G07G08G01
  23855992.486    73358542.551  
  21790610.124    -7735223.060  
  20393362.866    -4430449.698  
  24921612.910    38724325.340  
  20224342.116    -1126229.091  
  20506892.283   -46286404.026  
  21292126.519   -56932558.729  
  20974879.995   -69943386.918  
 18  6 25  3 37  0.0000000  0  8G28G30G11G09G18G07G08G01
  23853839.937    73347234.858  
  21788702.835    -7745249.152  
  20392225.984    -4436419.093  
  24923927.978    38736496.997  
  20223501.291    -1130644.225  
  20506656.451   -46287646.755  
  21293766.908   -56923933.477  
  20972541.570   -69955671.787  
 18  6 25  3 37  5.0000000  0  8G28G30G11G09G18G07G08G01
  23851688.091    73335925.968  
  21786797.250    -7755261.832  
  20391094.956    -4442374.042  
  24926243.461    38748666.005  
  20222664.317    -1135041.555  
  20506423.897   -46288872.209  
  21295408.715   -56915303.622  
  20970205.851   -69967942.882  
 18  6 25  3 37 10.0000000  0  8G28G30G11G09G18G07G08G01
  23849536.592    73324615.387  
  21784894.301    -7765261.740  
  20389962.700    -4448315.102  
  24928556.716    38760831.704  
  20221831.695    -1139421.696  
  20506193.979   -46290081.020  
  21297052.443   -56906669.776  
  20967874.914   -69980200.829  
 18  6 25  3 37 15.0000000  0  8G28G30G11G09G18G07G08G01
  23847382.700    73313303.299  
  21782993.968    -7775248.670  
  20388835.063    -4454242.082  
  24930867.005    38772994.373  
  20221001.690    -1143784.524  
  20505965.818   -46291272.966  
  21298695.352   -56898031.753  
  20965544.303   -69992445.405  
 18  6 25  3 37 20.0000000  0  8G28G30G11G09G18G07G08G01
  23845230.329    73301989.634  
  21781095.729    -7785222.478  
  20387709.664    -4460154.964  
  24933180.534    38785153.929  
  20220173.349    -1148129.884  
  20505743.328   -46292448.057  
  21300339.925   -56889389.464  
  20963216.788   -70004676.524  
 18  6 25  3 37 25.0000000  0  8G28G30G11G09G18G07G08G01
  23843077.369    73290674.505  
  21779200.191    -7795183.280  
  20386587.824    -4466053.639  
  24935491.613    38797311.505  
  20219351.000    -1152457.869  
  20505522.395   -46293606.196  
  21301985.913   -56880742.979  
  20960892.118   -70016894.217  
 18  6 25  3 37 30.0000000  0  7G28G30G11G18G07G08G01
  23840922.807    73279358.070  
  21777306.772    -7805130.777  
  20385466.672    -4471937.940  
  20218531.629    -1156768.191  
  20505305.155   -46294747.231  
  21303632.301   -56872092.012  
  20958567.706   -70029098.240  
 18  6 25  3 37 35.0000000  0  7G28G30G11G18G07G08G01
  23838768.118    73268040.269  
  21775416.374    -7815065.048  
  20384348.398    -4477807.974  
  20217714.421    -1161060.995  
  20505091.508   -46295871.208  
  21305278.850   -56863436.750  
  20956248.032   -70041288.660  
 18  6 25  3 37 40.0000000  0  7G28G30G11G18G07G08G01
  23836615.157    73256720.793  
  21773527.846    -7824986.430  
  20383235.857    -4483664.162  
  20216899.368    -1165336.576  
  20504881.878   -46296978.510  
  21306927.268   -56854777.572  
  20953932.804   -70053465.853  
 18  6 25  3 37 45.0000000  0  7G28G30G11G18G07G08G01
  23834465.171    73245399.895  
  21771643.010    -7834894.615  
  20382123.431    -4489506.100  
  20216090.297    -1169594.650  
  20504674.079   -46298068.773  
  21308575.371   -56846114.022  
  20951617.833   -70065629.423  
 18  6 25  3 37 50.0000000  0  7G28G30G11G18G07G08G01
  23832308.394    73234077.370  
  21769760.540    -7844789.823  
  20381012.943    -4495334.048  
  20215282.877    -1173835.359  
  20504468.790   -46299142.315  
  21310225.269   -56837446.377  
  20949306.374   -70077779.682  
 18  6 25  3 37 55.0000000  0  7G28G30G11G18G07G08G01
  23830154.676    73222753.353  
  21767879.698    -7854671.965  
  20379909.519    -4501147.861  
  20214478.658    -1178058.664  
  20504267.560   -46300198.962  
  21311874.218   -56828774.669  
  20946996.972   -70089916.457  
 18  6 25  3 38  0.0000000  0  8G28G30G11G09G18G07G08G01
  23827997.211    73211427.975  
  21766002.836    -7864540.798  
  20378805.926    -4506947.402  
  24951682.906    15298082.226  
  20213678.850    -1182264.368  
  20504071.313   -46301238.482  
  21313526.146   -56820098.701  
  20944689.117   -70102039.541  
 18  6 25  3 38  5.0000000  0  8G28G30G11G09G18G07G08G01
  23825843.601    73200101.383  
  21764126.681    -7874396.227  
  20377701.466    -4512732.521  
  24953989.757    15310214.147  
  20212882.610    -1186452.311  
  20503874.628   -46302260.806  
  21315177.064   -56811418.252  
  20942384.259   -70114148.846  
 18  6 25  3 38 10.0000000  0  8G28G30G11G09G18G07G08G01
  23823685.953    73188773.307  
  21762253.215    -7884238.577  
  20376605.131    -4518503.557  
  24956296.864    15322342.821  
  20212087.197    -1190622.914  
  20503683.779   -46303266.259  
  21316829.669   -56802733.704  
  20940084.092   -70126244.666  
 18  6 25  3 38 15.0000000  0  8G28G30G11G09G18G07G08G01
  23821529.370    73177443.725  
  21760384.389    -7894067.701  
  20375511.721    -4524260.405  
  24958603.890    15334468.389  
  20211296.999    -1194775.989  
  20503496.999   -46304254.741  
  21318483.194   -56794044.907  
  20937782.986   -70138326.917  
 18  6 25  3 38 20.0000000  0  8G28G30G11G09G18G07G08G01
  23819376.430    73166112.473  
  21758515.343    -7903883.845  
  20374416.516    -4530003.248  
  24960911.125    15346590.569  
  20210511.159    -1198911.900  
  20503310.571   -46305226.570  
  21320136.069   -56785352.184  
  20935487.097   -70150395.806  
 18  6 25  3 38 25.0000000  0  8G28G30G11G09G18G07G08G01
  23817217.289    73154779.767  
  21756650.543    -7913686.801  
  20373327.131    -4535731.955  
  24963216.166    15358709.539  
  20209727.561    -1203030.166  
  20503130.106   -46306181.388  
  21321792.045   -56776655.309  
  20933191.589   -70162451.063  
 18  6 25  3 38 30.0000000  0  8G28G30G11G09G18G07G08G01
  23815061.736    73143445.703  
  21754787.470    -7923476.389  
  20372239.330    -4541446.321  
  24965522.792    15370825.446  
  20208947.837    -1207130.841  
  20502951.654   -46307119.105  
  21323447.603   -56767954.183  
  20930901.673   -70174492.615  
 18  6 25  3 38 35.0000000  0  8G28G30G11G09G18G07G08G01
  23812905.082    73132110.076  
  21752927.016    -7933252.885  
  20371155.865    -4547146.686  
  24967827.171    15382937.961  
  20208170.016    -1211214.257  
  20502776.108   -46308040.077  
  21325105.493   -56759249.042  
  20928612.516   -70186520.681  
 18  6 25  3 38 40.0000000  0  8G28G30G11G09G18G07G08G01
  23810744.925    73120772.981  
  21751067.638    -7943016.218  
  20370072.904    -4552832.902  
  24970130.766    15395047.268  
  20207396.992    -1215280.139  
  20502603.783   -46308944.077  
  21326763.314   -56750539.846  
  20926326.724   -70198535.182  
 18  6 25  3 38 45.0000000  0  8G28G30G11G09G18G07G08G01
  23808585.908    73109434.673  
  21749213.550    -7952766.074  
  20368992.514    -4558504.664  
  24972431.353    15407153.526  
  20206625.967    -1219328.272  
  20502435.032   -46309830.802  
  21328420.989   -56741826.183  
  20924042.502   -70210535.763  
 18  6 25  3 38 50.0000000  0  8G28G30G11G09G18G07G08G01
  23806427.144    73098094.983  
  21747360.001    -7962502.490  
  20367917.385    -4564162.132  
  24974736.485    15419256.731  
  20205858.915    -1223358.778  
  20502269.253   -46310700.430  
  21330080.633   -56733108.267  
  20921760.679   -70222522.607  
 18  6 25  3 38 55.0000000  0  8G28G30G11G09G18G07G08G01
  23804269.453    73086753.612  
  21745510.244    -7972225.998  
  20366845.189    -4569805.715  
  24977035.677    15431359.331  
  20205095.798    -1227372.110  
  20502107.407   -46311553.415  
  21331740.634   -56724386.587  
  20919483.506   -70234496.070  
 18  6 25  3 39  0.0000000  0  8G28G30G11G09G18G07G08G01
  23802113.320    73075411.026  
  21743662.044    -7981935.888  
  20365772.262    -4575434.755  
  24979337.144    15443455.997  
  20204336.099    -1231367.573  
  20501948.695   -46312389.174  
  21333399.618   -56715660.608  
  20917207.748   -70246455.596  
 18  6 25  3 39  5.0000000  0  8G28G30G11G09G18G07G08G01
  23799955.865    73064066.896  
  21741816.387    -7991632.572  
  20364703.737    -4581049.683  
  24981641.295    15455549.258  
  20203577.225    -1235345.542  
  20501792.237   -46313208.030  
  21335061.716   -56706930.543  
  20914935.104   -70258401.477  
 18  6 25  3 39 10.0000000  0  8G28G30G11G09G18G07G08G01
  23797797.391    73052721.507  
  21739975.434    -8001315.891  
  20363638.342    -4586650.336  
  24983941.422    15467639.284  
  20202823.913    -1239305.989  
  20501639.912   -46314009.817  
  21336723.080   -56698196.271  
  20912664.017   -70270333.609  
 18  6 25  3 39 15.0000000  0  8G28G30G11G09G18G07G08G01
  23795636.287    73041373.854  
  21738133.711    -8010986.691  
  20362574.610    -4592237.604  
  24986241.924    15479725.223  
  20202072.551    -1243249.647  
  20501490.537   -46314795.447  
  21338384.820   -56689458.656  
  20910395.594   -70282252.800  
 18  6 25  3 39 20.0000000  0  8G28G30G11G09G18G07G08G01
  23793478.215    73030025.167  
  21736295.593    -8020643.755  
  20361514.053    -4597810.250  
  24988541.881    15491808.241  
  20201326.510    -1247175.417  
  20501344.767   -46315563.651  
  21340048.447   -56680716.592  
  20908130.203   -70294157.884  
 18  6 25  3 39 25.0000000  0  8G28G30G11G09G18G07G08G01
  23791317.750    73018675.477  
  21734461.520    -8030287.084  
  20360456.683    -4603368.257  
  24990843.594    15503888.362  
  20200582.941    -1251083.234  
  20501201.611   -46316314.493  
  21341713.687   -56671970.068  
  20905867.999   -70306048.821  
 18  6 25  3 39 30.0000000  0  8G28G30G11G09G18G07G08G01
  23789156.462    73007324.123  
  21732629.486    -8039917.323  
  20359402.068    -4608912.303  
  24993145.200    15515964.854  
  20199843.271    -1254973.735  
  20501061.497   -46317048.555  
  21343378.248   -56663219.807  
  20903606.833   -70317926.311  
 18  6 25  3 39 35.0000000  0  8G28G30G11G09G18G07G08G01
  23786997.963    72995971.250  
  21730800.528    -8049534.299  
  20358348.525    -4614442.195  
  24995439.293    15528037.920  
  20199105.818    -1258846.820  
  20500923.742   -46317765.761  
  21345045.026   -56654465.490  
  20901349.744   -70329790.096  
 18  6 25  3 39 40.0000000  0  8G28G30G11G09G18G07G08G01
  23784837.202    72984617.005  
  21728972.456    -8059137.857  
  20357299.731    -4619957.836  
  24997738.993    15540107.641  
  20198372.685    -1262702.245  
  20500792.740   -46318465.871  
  21346710.686   -56645706.986  
  20899093.684   -70341640.083  
 18  6 25  3 39 45.0000000  0  8G28G30G11G09G18G07G08G01
  23782674.045    72973261.185  
  21727145.851    -8068728.202  
  20356254.265    -4625459.371  
  25000034.008    15552173.877  
  20197642.164    -1266540.296  
  20500661.918   -46319149.191  
  21348378.386   -56636944.531  
  20896841.237   -70353476.428  
 18  6 25  3 39 50.0000000  0  8G28G30G11G09G18G07G08G01
  23780509.726    72961904.123  
  21725323.379    -8078305.039  
  20355209.212    -4630946.646  
  25002329.292    15564236.813  
  20196914.918    -1270360.610  
  20500534.656   -46319815.380  
  21350047.500   -56628178.088  
  20894592.351   -70365298.879  
 18  6 25  3 39 55.0000000  0  8G28G30G11G09G18G07G08G01
  23778347.107    72950545.725  
  21723504.467    -8087868.392  
  20354167.718    -4636419.531  
  25004621.554    15576296.504  
  20196190.087    -1274163.321  
  20500411.669   -46320464.464  
  21351716.453   -56619407.385  
  20892345.451   -70377107.446  
 18  6 25  3 40  0.0000000  0  8G28G30G11G09G18G07G08G01
  23776189.196    72939186.120  
  21721686.399    -8097418.180  
  20353129.359    -4641878.044  
  25006915.662    15588353.003  
  20195470.822    -1277948.299  
  20500291.101   -46321096.339  
  21353386.251   -56610632.494  
  20890101.399   -70388902.004  
 18  6 25  3 40  5.0000000  0  8G28G30G11G09G18G07G08G01
  23774028.334    72927824.858  
  21719870.818    -8106954.732  
  20352092.626    -4647322.487  
  25009206.962    15600405.812  
  20194754.472    -1281715.932  
  20500175.165   -46321711.418  
  21355057.104   -56601853.645  
  20887858.545   -70400682.971  
 18  6 25  3 40 10.0000000  0  7G28G30G11G18G07G08G01
  23771871.145    72916462.109  
  21718059.053    -8116477.958  
  20351059.997    -4652752.818  
  20194040.938    -1285466.111  
  20500060.184   -46322309.545  
  21356728.197   -56593071.021  
  20885618.649   -70412450.199  
 18  6 25  3 40 15.0000000  0  7G28G30G11G18G07G08G01
  23769709.385    72905098.102  
  21716250.015    -8125987.639  
  20350028.520    -4658168.807  
  20193329.987    -1289198.612  
  20499949.647   -46322890.511  
  21358400.156   -56584284.299  
  20883382.481   -70424203.491  
 18  6 25  3 40 20.0000000  0  7G28G30G11G18G07G08G01
  23767543.222    72893732.451  
  21714442.726    -8135484.200  
  20349000.796    -4663570.850  
  20192622.503    -1292913.833  
  20499844.007   -46323454.771  
  21360072.576   -56575493.794  
  20881148.779   -70435943.237  
 18  6 25  3 40 25.0000000  0  7G28G30G11G18G07G08G01
  23765377.966    72882365.599  
  21712639.350    -8144967.100  
  20347976.269    -4668958.406  
  20191919.933    -1296611.247  
  20499739.562   -46324001.875  
  21361746.477   -56566698.947  
  20878917.987   -70447668.900  
 18  6 25  3 40 30.0000000  0  7G28G30G11G18G07G08G01
  23763214.077    72870997.045  
  21710836.767    -8154436.744  
  20346953.967    -4674331.959  
  20191218.729    -1300291.268  
  20499637.913   -46324532.173  
  21363420.885   -56557900.339  
  20876688.705   -70459380.886  
 18  6 25  3 40 35.0000000  0  8G28G30G11G18G07G08G09G01
  23761052.296    72859627.309  
  21709037.581    -8163892.823  
  20345932.915    -4679691.137  
  20190521.923    -1303953.626  
  20499540.948   -46325045.376  
  21365095.542   -56549097.777  
  25022951.194    58355137.934  
  20874463.677   -70471078.938  
 18  6 25  3 40 40.0000000  0  7G28G30G11G18G07G08G01
  23758888.800    72848256.245  
  21707240.687    -8173335.217  
  20344915.871    -4685035.935  
  20189828.697    -1307598.259  
  20499446.132   -46325541.395  
  21366770.773   -56540290.928  
  20872238.938   -70482762.879  
 18  6 25  3 40 45.0000000  0  7G28G30G11G18G07G08G01
  23756724.353    72836883.544  
  21705446.276    -8182764.373  
  20343901.598    -4690366.755  
  20189138.956    -1311225.495  
  20499354.086   -46326020.652  
  21368447.486   -56531480.402  
  20870019.114   -70494433.169  
 18  6 25  3 40 50.0000000  0  7G28G30G11G18G07G08G01
  23754560.055    72825509.577  
  21703654.016    -8192179.976  
  20342890.334    -4695683.241  
  20188451.222    -1314835.033  
  20499268.054   -46326482.801  
  21370125.634   -56522665.875  
  20867800.155   -70506089.477  
 18  6 25  3 40 55.0000000  0  7G28G30G11G18G07G08G01
  23752396.021    72814134.144  
  21701865.312    -8201582.113  
  20341880.479    -4700985.566  
  20187767.617    -1318427.042  
  20499182.144   -46326928.007  
  21371802.903   -56513847.373  
  20865585.037   -70517731.940  
 18  6 25  3 41  0.0000000  0  7G28G30G11G18G07G08G01
  23750228.954    72802757.525  
  21700078.441    -8210970.668  
  20340874.174    -4706273.562  
  20187087.705    -1322001.396  
  20499100.213   -46327356.118  
  21373483.006   -56505024.851  
  20863373.469   -70529360.360  
 18  6 25  3 41  5.0000000  0  7G28G30G11G18G07G08G01
  23748065.139    72791379.437  
  21698294.822    -8220345.662  
  20339870.692    -4711547.291  
  20186410.616    -1325558.105  
  20499022.965   -46327767.158  
  21375162.068   -56496198.349  
  20861162.863   -70540974.840  
 18  6 25  3 41 10.0000000  0  7G28G30G11G18G07G08G01
  23745897.879    72779999.617  
  21696514.196    -8229707.581  
  20338871.777    -4716807.229  
  20185736.806    -1329097.588  
  20498946.421   -46328161.649  
  21376843.408   -56487368.326  
  20858954.965   -70552575.813  
 18  6 25  3 41 15.0000000  0  7G28G30G11G18G07G08G01
  23743733.053    72768618.290  
  21694734.287    -8239055.962  
  20337871.719    -4722052.923  
  20185067.863    -1332619.582  
  20498874.457   -46328539.115  
  21378524.177   -56478534.475  
  20856749.071   -70564162.842  
 18  6 25  3 41 20.0000000  0  7G28G30G11G18G07G08G01
  23741566.864    72757235.979  
  21692957.451    -8248390.351  
  20336876.309    -4727283.969  
  20184400.705    -1336123.507  
  20498807.141   -46328899.101  
  21380204.585   -56469696.218  
  20854546.966   -70575735.480  
 18  6 25  3 41 25.0000000  0  7G28G30G11G18G07G08G01
  23739400.917    72745852.290  
  21691183.719    -8257711.228  
  20335883.858    -4732500.761  
  20183737.795    -1339609.884  
  20498741.496   -46329242.144  
  21381887.381   -56460854.104  
  20852347.821   -70587294.155  
 18  6 25  3 41 30.0000000  0  7G28G30G11G18G07G08G01
  23737234.049    72734467.206  
  21689413.072    -8267018.618  
  20334893.921    -4737703.399  
  20183077.255    -1343078.780  
  20498678.652   -46329568.227  
  21383571.260   -56452008.196  
  20850150.904   -70598838.939  
 18  6 25  3 41 35.0000000  0  7G28G30G11G18G07G08G01
  23735064.370    72723081.239  
  21687644.623    -8276311.897  
  20333905.895    -4742891.223  
  20182419.342    -1346529.534  
  20498620.580   -46329876.765  
  21385256.191   -56443157.841  
  20847957.185   -70610369.188  
 18  6 25  3 41 40.0000000  0  7G28G30G11G18G07G08G01
  23732899.595    72711693.428  
  21685878.503    -8285592.082  
  20332922.202    -4748065.312  
  20181766.764    -1349963.153  
  20498565.124   -46330168.701  
  21386940.447   -56434304.023  
  20845765.081   -70621885.909  
 18  6 25  3 41 45.0000000  0  7G28G30G11G18G07G08G01
  23730733.561    72700303.832  
  21684115.558    -8294859.100  
  20331939.823    -4753225.571  
  20181117.217    -1353379.529  
  20498512.557   -46330444.077  
  21388625.588   -56425446.743  
  20843575.865   -70633389.032  
 18  6 25  3 41 50.0000000  0  7G28G30G11G18G07G08G01
  23728567.999    72688913.194  
  21682354.374    -8304112.079  
  20330959.779    -4758371.139  
  20180471.435    -1356777.870  
  20498463.469   -46330701.977  
  21390312.204   -56416585.143  
  20841389.126   -70644877.709  
 18  6 25  3 41 55.0000000  0  8G28G30G11G18G07G08G09G01
  23726399.484    72677521.218  
  21680596.103    -8313351.511  
  20329983.505    -4763502.523  
  20179827.707    -1360158.663  
  20498418.437   -46330942.935  
  21391999.157   -56407719.702  
  25059508.220    86972079.871  
  20839206.302   -70656352.447  
 18  6 25  3 42  0.0000000  0  8G28G30G11G18G07G08G09G01
  23724230.717    72666127.953  
  21678840.872    -8322577.244  
  20329009.556    -4768619.562  
  20179186.447    -1363521.760  
  20498375.587   -46331166.735  
  21393686.861   -56398850.244  
  25061780.311    86984051.013  
  20837025.801   -70667813.008  
 18  6 25  3 42  5.0000000  0  8G28G30G11G18G07G08G09G01
  23722062.183    72654733.223  
  21677087.448    -8331789.450  
  20328038.844    -4773722.484  
  20178549.568    -1366867.350  
  20498335.688   -46331373.651  
  21395374.797   -56389977.097  
  25064050.345    86996017.972  
  20834847.966   -70679259.659  
 18  6 25  3 42 10.0000000  0  7G28G30G11G18G07G08G01
  23719891.095    72643336.947  
  21675335.762    -8340988.137  
  20327071.588    -4778811.234  
  20177918.579    -1370195.425  
  20498299.389   -46331563.686  
  21397065.188   -56381100.236  
  20832671.727   -70690692.311  
 18  6 25  3 42 15.0000000  0  7G28G30G11G18G07G08G01
  23717722.407    72631939.829  
  21673588.909    -8350172.656  
  20326106.446    -4783885.256  
  20177286.698    -1373505.395  
  20498268.064   -46331736.152  
  21398754.687   -56372219.052  
  20830499.747   -70702110.426  
 18  6 25  3 42 20.0000000  0  7G28G30G11G18G07G08G01
  23715556.494    72620541.019  
  21671843.973    -8359343.879  
  20325143.650    -4788945.370  
  20176661.027    -1376798.071  
  20498237.513   -46331891.949  
  21400446.389   -56363334.319  
  20828329.256   -70713514.808  
 18  6 25  3 42 25.0000000  0  7G28G30G11G18G07G08G01
  23713388.546    72609140.971  
  21670101.437    -8368501.270  
  20324182.969    -4793991.007  
  20176037.326    -1380073.012  
  20498211.937   -46332030.553  
  21402137.201   -56354445.551  
  20826162.309   -70724904.942  
 18  6 25  3 42 30.0000000  0  7G28G30G11G18G07G08G01
  23711217.709    72597739.468  
  21668361.450    -8377645.063  
  20323223.978    -4799022.513  
  20175417.320    -1383330.324  
  20498188.624   -46332152.209  
  21403829.560   -56345553.031  
  20823995.909   -70736281.006  
 18  6 25  3 42 35.0000000  0  7G28G30G11G18G07G08G01
  23709047.586    72586336.660  
  21666623.894    -8386775.153  
  20322270.995    -4804039.712  
  20174800.603    -1386569.923  
  20498167.312   -46332256.757  
  21405521.488   -56336656.676  
  20821834.657   -70747642.956  
 18  6 25  3 42 40.0000000  0  7G28G30G11G18G07G08G01
  23706875.434    72574932.668  
  21664889.031    -8395891.385  
  20321319.273    -4809042.458  
  20174187.723    -1389791.832  
  20498150.696   -46332344.150  
  21407216.252   -56327756.286  
  20819674.811   -70758990.618  
 18  6 25  3 42 45.0000000  0  7G28G30G11G18G07G08G01
  23704706.142    72563527.326  
  21663156.884    -8404993.902  
  20320370.126    -4814030.955  
  20173577.418    -1392996.068  
  20498138.372   -46332414.493  
  21408910.156   -56318852.170  
  20817518.111   -70770324.122  
 18  6 25  3 42 50.0000000  0  7G28G30G11G18G07G08G01
  23702535.690    72552120.719  
  21661426.870    -8414082.649  
  20319421.679    -4819005.117  
  20172971.676    -1396182.558  
  20498127.034   -46332467.712  
  21410604.045   -56309944.151  
  20815364.973   -70781643.455  
 18  6 25  3 42 55.0000000  0  7G28G30G11G18G07G08G01
  23700367.740    72540712.524  
  21659701.359    -8423157.857  
  20318477.594    -4823965.162  
  20172369.151    -1399351.587  
  20498121.203   -46332504.048  
  21412301.293   -56301032.502  
  20813213.621   -70792948.792  
 18  6 25  3 43  0.0000000  0  7G28G30G11G18G07G08G01
  23698196.102    72529303.129  
  21657976.454    -8432219.231  
  20317537.405    -4828910.859  
  20171768.949    -1402502.830  
  20498116.692   -46332523.292  
  21413997.716   -56292116.993  
  20811064.735   -70804239.853  
 18  6 25  3 43  5.0000000  0  7G28G30G11G18G07G08G01
  23696022.704    72517892.365  
  21656254.512    -8441266.894  
  20316599.893    -4833842.317  
  20171172.997    -1405636.530  
  20498117.004   -46332525.509  
  21415694.383   -56283197.688  
  20808918.239   -70815516.763  
 18  6 25  3 43 10.0000000  0  7G28G30G11G18G07G08G01
  23693849.121    72506480.113  
  21654535.102    -8450300.945  
  20315663.196    -4838759.682  
  20170579.434    -1408752.718  
  20498120.421   -46332510.808  
  21417392.294   -56274274.780  
  20806775.849   -70826779.663  
 18  6 25  3 43 15.0000000  0  7G28G30G11G18G07G08G01
  23691675.357    72495066.612  
  21652818.374    -8459321.215  
  20314730.897    -4843662.738  
  20169991.129    -1411851.177  
  20498125.947   -46332479.073  
  21419090.884   -56265348.098  
  20804634.281   -70838028.324  
 18  6 25  3 43 20.0000000  0  7G28G30G11G18G07G08G01
  23689505.195    72483651.761  
  21651106.106    -8468327.699  
  20313799.053    -4848551.449  
  20169404.422    -1414932.009  
  20498136.076   -46332430.248  
  21420792.216   -56256417.566  
  20802496.887   -70849262.763  
 18  6 25  3 43 25.0000000  0  7G28G30G11G18G07G08G01
  23687333.483    72472235.830  
  21649394.006    -8477320.141  
  20312871.526    -4853425.680  
  20168821.460    -1417994.904  
  20498147.948   -46332364.116  
  21422491.571   -56247482.999  
  20800361.664   -70860482.752  
 18  6 25  3 43 30.0000000  0  7G28G30G11G18G07G08G01
  23685158.969    72460818.361  
  21647685.113    -8486298.995  
  20311948.064    -4858285.746  
  20168241.563    -1421040.316  
  20498163.456   -46332281.136  
  21424192.702   -56238544.912  
  20798230.364   -70871688.646  
 18  6 25  3 43 35.0000000  0  7G28G30G11G18G07G08G01
  23682984.377    72449399.886  
  21645979.289    -8495263.744  
  20311025.240    -4863131.241  
  20167664.019    -1424067.779  
  20498182.462   -46332180.789  
  21425894.040   -56229602.760  
  20796100.702   -70882880.038  
 18  6 25  3 43 40.0000000  0  7G28G30G11G18G07G08G01
  23680809.858    72437980.030  
  21644275.829    -8504214.788  
  20310106.782    -4867962.516  
  20167091.986    -1427077.642  
  20498204.547   -46332063.455  
  21427595.452   -56220656.938  
  20793972.116   -70894057.274  
 18  6 25  3 43 45.0000000  0  7G28G30G11G18G07G08G01
  23678633.971    72426558.997  
  21642576.295    -8513151.846  
  20309188.959    -4872779.414  
  20166522.593    -1430069.724  
  20498231.275   -46331928.976  
  21429298.358   -56211707.227  
  20791848.744   -70905220.108  
 18  6 25  3 43 50.0000000  0  7G28G30G11G18G07G08G01
  23676459.161    72415136.496  
  21640876.408    -8522075.212  
  20308274.646    -4877582.126  
  20165957.710    -1433044.229  
  20498259.079   -46331777.540  
  21431003.772   -56202753.899  
  20789728.309   -70916368.765  
 18  6 25  3 43 55.0000000  0  7G28G30G11G18G07G08G01
  23674284.760    72403712.439  
  21639182.366    -8530984.966  
  20307365.607    -4882370.824  
  20165395.382    -1436001.246  
  20498291.298   -46331609.297  
  21432708.449   -56193797.078  
  20787609.427   -70927503.401  
 18  6 25  3 44  0.0000000  0  7G28G30G11G18G07G08G01
  23672109.519    72392287.424  
  21637489.059    -8539880.514  
  20306455.585    -4887144.819  
  20164835.506    -1438940.214  
  20498326.541   -46331423.606  
  21434413.003   -56184836.114  
  20785492.139   -70938623.350  
 18  6 25  3 44  5.0000000  0  7G28G30G11G18G07G08G01
  23669938.003    72380861.236  
  21635798.331    -8548762.038  
  20305551.004    -4891904.444  
  20164279.069    -1441861.438  
  20498366.081   -46331220.778  
  21436118.706   -56175871.459  
  20783379.004   -70949728.903  
 18  6 25  3 44 10.0000000  0  7G28G30G11G18G07G08G01
  23667766.745    72369433.473  
  21634112.584    -8557629.939  
  20304646.825    -4896649.945  
  20163726.037    -1444765.154  
  20498407.311   -46331001.097  
  21437826.097   -56166903.271  
  20781267.988   -70960820.323  
 18  6 25  3 44 15.0000000  0  7G28G30G11G18G07G08G01
  23665596.325    72358004.564  
  21632426.531    -8566483.864  
  20303747.634    -4901381.053  
  20163177.421    -1447651.103  
  20498453.099   -46330764.235  
  21439532.324   -56157931.192  
  20779159.670   -70971897.350  
 18  6 25  3 44 20.0000000  0  7G28G30G11G18G07G08G01
  23663421.014    72346574.178  
  21630744.887    -8575324.131  
  20302848.990    -4906098.126  
  20162632.357    -1450519.646  
  20498499.862   -46330510.539  
  21441239.240   -56148955.654  
  20777054.903   -70982960.272  
 18  6 25  3 44 25.0000000  0  7G28G30G11G18G07G08G01
  23661243.916    72335142.430  
  21629065.319    -8584150.532  
  20301955.855    -4910800.902  
  20162089.368    -1453370.403  
  20498552.136   -46330239.790  
  21442948.661   -56139976.378  
  20774952.499   -70994008.870  
 18  6 25  3 44 30.0000000  0  7G28G30G11G18G07G08G01
  23659069.242    72323709.382  
  21627387.889    -8592963.077  
  20301062.282    -4915489.488  
  20161548.946    -1456203.633  
  20498606.547   -46329952.063  
  21444658.074   -56130993.550  
  20772852.662   -71005043.176  
 18  6 25  3 44 35.0000000  0  7G28G30G11G18G07G08G01
  23656894.527    72312275.057  
  21625713.567    -8601761.668  
  20300172.104    -4920163.681  
  20161014.351    -1459019.137  
  20498664.496   -46329647.226  
  21446368.162   -56122007.038  
  20770758.221   -71016063.120  
 18  6 25  3 44 40.0000000  0  7G28G30G11G18G07G08G01
  23654719.953    72300839.463  
  21624040.387    -8610546.314  
  20299286.645    -4924823.543  
  20160482.616    -1461816.866  
  20498726.592   -46329325.291  
  21448078.820   -56113016.770  
  20768662.062   -71027068.614  
 18  6 25  3 44 45.0000000  0  7G28G30G11G18G07G08G01
  23652542.776    72289402.259  
  21622373.619    -8619317.328  
  20298403.019    -4929469.390  
  20159952.713    -1464597.171  
  20498790.521   -46328986.619  
  21449791.883   -56104023.148  
  20766569.882   -71038060.006  
 18  6 25  3 44 50.0000000  0  7G28G30G11G18G07G08G01
  23650365.162    72277963.972  
  21620705.412    -8628074.202  
  20297520.673    -4934100.801  
  20159428.096    -1467359.597  
  20498857.732   -46328630.648  
  21451503.078   -56095025.658  
  20764481.270   -71049036.836  
 18  6 25  3 44 55.0000000  0  7G28G30G11G18G07G08G01
  23648189.649    72266524.251  
  21619042.311    -8636817.264  
  20296641.716    -4938718.037  
  20158905.152    -1470104.504  
  20498929.764   -46328257.832  
  21453216.517   -56086024.719  
  20762395.047   -71059999.431  
 18  6 25  3 45  0.0000000  0  7G28G30G11G18G07G08G01
  23646011.149    72255083.403  
  21617382.091    -8645546.285  
  20295766.498    -4943320.844  
  20158385.518    -1472831.579  
  20499004.104   -46327867.830  
  21454929.402   -56077020.132  
  20760311.847   -71070947.515  
 18  6 25  3 45  5.0000000  0  7G28G30G11G18G07G08G01
  23643832.739    72243641.175  
  21615722.674    -8654261.408  
  20294893.086    -4947909.428  
  20157869.835    -1475541.032  
  20499081.252   -46327460.871  
  21456642.663   -56068011.875  
  20758231.311   -71081881.223  
 18  6 25  3 45 10.0000000  0  7G28G30G11G18G07G08G01
  23641656.766    72232197.737  
  21614066.411    -8662962.446  
  20294024.973    -4952483.594  
  20157358.164    -1478232.625  
  20499161.409   -46327036.724  
  21458357.932   -56058999.804  
  20756152.354   -71092800.454  
 18  6 25  3 45 15.0000000  0  7G28G30G11G18G07G08G01
  23639478.516    72220753.029  
  21612413.452    -8671649.547  
  20293156.157    -4957043.527  
  20156849.225    -1480906.643  
  20499245.586   -46326595.553  
  21460074.501   -56049984.194  
  20754078.562   -71103705.220  
 18  6 25  3 45 20.0000000  0  7G28G30G11G18G07G08G01
  23637301.485    72209306.956  
  21610763.000    -8680322.761  
  20292290.564    -4961589.242  
  20156342.792    -1483563.033  
  20499332.126   -46326137.404  
  21461790.143   -56040965.054  
  20752005.559   -71114595.697  
 18  6 25  3 45 25.0000000  0  7G28G30G11G18G07G08G01
  23635123.490    72197859.880  
  21609114.588    -8688981.709  
  20291428.871    -4966120.375  
  20155842.407    -1486201.399  
  20499421.995   -46325661.895  
  21463507.396   -56031942.034  
  20749936.457   -71125471.398  
 18  6 25  3 45 30.0000000  0  7G28G30G11G18G07G08G01
  23632942.742    72186411.392  
  21607471.150    -8697626.781  
  20290566.572    -4970637.346  
  20155342.703    -1488822.178  
  20499516.408   -46325169.437  
  21465225.044   -56022915.510  
  20747869.324   -71136332.839  
 18  6 25  3 45 35.0000000  0  7G28G30G11G18G07G08G01
  23630763.694    72174961.472  
  21605829.555    -8706258.015  
  20289711.983    -4975140.276  
  20154847.131    -1491425.496  
  20499613.953   -46324660.106  
  21466942.962   -56013885.622  
  20745804.749   -71147179.916  
 18  6 25  3 45 40.0000000  0  7G28G30G11G18G07G08G01
  23628587.508    72163510.511  
  21604188.676    -8714874.963  
  20288856.822    -4979628.582  
  20154355.137    -1494010.767  
  20499714.073   -46324133.385  
  21468662.883   -56004851.895  
  20743744.611   -71158012.281  
 18  6 25  3 45 45.0000000  0  7G28G30G11G18G07G08G01
  23626406.452    72152058.318  
  21602551.226    -8723477.874  
  20288006.234    -4984102.592  
  20153867.287    -1496578.403  
  20499818.051   -46323589.599  
  21470382.655   -55995814.604  
  20741685.898   -71168830.179  
 18  6 25  3 45 50.0000000  0  7G28G30G11G18G07G08G01
  23624227.509    72140604.838  
  21600917.463    -8732066.757  
  20287156.472    -4988562.339  
  20153382.410    -1499128.296  
  20499924.143   -46323028.811  
  21472102.395   -55986773.689  
  20739628.869   -71179633.549  
 18  6 25  3 45 55.0000000  0  7G28G30G11G18G07G08G01
  23622048.734    72129150.127  
  21599286.445    -8740641.618  
  20286311.887    -4993007.754  
  20152900.276    -1501660.479  
  20500033.695   -46322450.979  
  21473823.161   -55977729.188  
  20737576.159   -71190422.417  
 18  6 25  3 46  0.0000000  0  7G28G30G11G18G07G08G01
  23619867.028    72117694.161  
  21597656.214    -8749202.384  
  20285467.660    -4997438.801  
  20152421.650    -1504174.890  
  20500147.612   -46321856.031  
  21475545.431   -55968681.084  
  20735526.383   -71201196.750  
 18  6 25  3 46  5.0000000  0  7G28G30G11G18G07G08G01
  23617687.119    72106236.870  
  21596029.928    -8757749.202  
  20284627.521    -5001855.660  
  20151945.250    -1506671.760  
  20500263.470   -46321244.194  
  21477266.924   -55959629.606  
  20733479.549   -71211956.708  
 18  6 25  3 46 10.0000000  0  7G28G30G11G18G07G08G01
  23615506.184    72094778.411  
  21594406.479    -8766281.830  
  20283788.359    -5006258.165  
  20151474.264    -1509150.734  
  20500384.025   -46320615.111  
  21478991.826   -55950574.421  
  20731434.552   -71222701.957  
 18  6 25  3 46 15.0000000  0  7G28G30G11G18G07G08G01
  23613326.808    72083318.798  
  21592785.877    -8774800.243  
  20282954.763    -5010646.201  
  20151006.410    -1511611.891  
  20500505.711   -46319968.911  
  21480713.422   -55941515.552  
  20729392.544   -71233432.568  
 18  6 25  3 46 20.0000000  0  7G28G30G11G18G07G08G01
  23611146.070    72071857.692  
  21591167.347    -8783304.884  
  20282122.379    -5015020.228  
  20150540.342    -1514055.657  
  20500632.759   -46319305.911  
  21482439.808   -55932453.472  
  20727353.467   -71244148.955  
 18  6 25  3 46 25.0000000  0  7G28G30G11G18G07G08G01
  23608963.982    72060395.671  
  21589551.331    -8791795.044  
  20281292.939    -5019379.601  
  20150080.080    -1516481.328  
  20500762.750   -46318625.474  
  21484164.846   -55923387.503  
  20725316.188   -71254850.393  
 18  6 25  3 46 30.0000000  0  7G28G30G11G18G07G08G01
  23606782.237    72048932.393  
  21587938.663    -8800271.136  
  20280466.991    -5023724.647  
  20149620.303    -1518889.288  
  20500895.089   -46317927.987  
  21485890.512   -55914318.016  
  20723281.828   -71265537.259  
 18  6 25  3 46 35.0000000  0  7G28G30G11G18G07G08G01
  23604600.166    72037467.806  
  21586328.101    -8808733.123  
  20279641.861    -5028055.418  
  20149166.210    -1521279.568  
  20501030.534   -46317213.531  
  21487616.854   -55905245.088  
  20721251.721   -71276209.625  
 18  6 25  3 46 40.0000000  0  7G28G30G11G18G07G08G01
  23602417.719    72026001.786  
  21584720.597    -8817181.229  
  20278820.360    -5032372.124  
  20148716.320    -1523652.325  
  20501169.181   -46316482.185  
  21489344.536   -55896168.802  
  20719223.097   -71286867.551  
 18  6 25  3 46 45.0000000  0  7G28G30G11G18G07G08G01
  23600236.017    72014534.708  
  21583115.269    -8825615.003  
  20278001.609    -5036674.348  
  20148266.173    -1526007.175  
  20501311.864   -46315733.591  
  21491073.966   -55887088.817  
  20717198.653   -71297510.780  
 18  6 25  3 46 50.0000000  0  7G28G30G11G18G07G08G01
  23598053.436    72003066.326  
  21581513.212    -8834034.703  
  20277185.412    -5040962.305  
  20147821.586    -1528344.359  
  20501457.961   -46314968.064  
  21492800.513   -55878005.329  
  20715175.190   -71308139.405  
 18  6 25  3 46 55.0000000  0  7G28G30G11G18G07G08G01
  23595870.791    71991596.662  
  21579915.383    -8842440.322  
  20276372.586    -5045236.016  
  20147381.658    -1530663.878  
  20501607.285   -46314185.542  
  21494530.860   -55868918.477  
  20713155.813   -71318753.458  
 18  6 25  3 47  0.0000000  0  7G28G30G11G18G07G08G01
  23593688.952    71980125.714  
  21578316.072    -8850831.852  
  20275561.855    -5049495.482  
  20146942.250    -1532965.780  
  20501758.274   -46313386.030  
  21496260.153   -55859828.188  
  20711139.103   -71329353.027  
 18  6 25  3 47  5.0000000  0  7G28G30G11G18G07G08G01
  23591505.546    71968653.706  
  21576723.779    -8859209.047  
  20274754.134    -5053740.456  
  20146507.713    -1535249.752  
  20501914.850   -46312569.266  
  21497989.738   -55850734.217  
  20709125.117   -71339937.709  
 18  6 25  3 47 10.0000000  0  7G28G30G11G18G07G08G01
  23589324.880    71957180.719  
  21575131.364    -8867571.731  
  20273949.154    -5057970.837  
  20146076.775    -1537515.714  
  20502073.451   -46311735.137  
  21499721.635   -55841636.590  
  20707113.300   -71350507.505  
 18  6 25  3 47 15.0000000  0  7G28G30G11G18G07G08G01
  23587139.713    71945706.240  
  21573543.605    -8875920.493  
  20273147.399    -5062187.098  
  20145649.492    -1539764.139  
  20502235.992   -46310884.172  
  21501453.322   -55832535.626  
  20705104.565   -71361062.826  
 18  6 25  3 47 20.0000000  0  7G28G30G11G18G07G08G01
  23584953.865    71934230.895  
  21571956.883    -8884254.710  
  20272347.540    -5066388.764  
  20145224.819    -1541994.551  
  20502400.715   -46310015.796  
  21503184.473   -55823430.862  
  20703098.440   -71371603.196  
 18  6 25  3 47 25.0000000  0  7G28G30G11G18G07G08G01
  23582770.816    71922754.134  
  21570374.534    -8892574.916  
  20271549.907    -5070576.294  
  20144803.375    -1544207.365  
  20502569.955   -46309130.601  
  21504920.139   -55814322.852  
  20701096.259   -71382129.031  
 18  6 25  3 47 30.0000000  0  7G28G30G11G18G07G08G01
  23580589.136    71911276.029  
  21568792.838    -8900881.071  
  20270755.503    -5074749.678  
  20144385.017    -1546402.650  
  20502740.133   -46308228.489  
  21506652.738   -55805211.548  
  20699096.878   -71392640.384  
 18  6 25  3 47 35.0000000  0  7G28G30G11G18G07G08G01
  23578404.262    71899796.616  
  21567214.675    -8909173.143  
  20269964.488    -5078908.867  
  20143971.622    -1548580.281  
  20502915.561   -46307309.373  
  21508387.869   -55796096.829  
  20697097.595   -71403137.112  
 18  6 25  3 47 40.0000000  0  7G28G30G11G18G07G08G01
  23576216.831    71888316.167  
  21565640.392    -8917450.746  
  20269175.208    -5083053.562  
  20143560.104    -1550740.005  
  20503094.584   -46306373.009  
  21510122.587   -55786978.486  
  20695103.195   -71413618.966  
 18  6 25  3 47 45.0000000  0  7G28G30G11G18G07G08G01
  23574034.533    71876834.579  
  21564067.093    -8925714.059  
  20268390.202    -5087183.825  
  20143153.147    -1552881.855  
  20503275.306   -46305419.509  
  21511857.859   -55777856.645  
  20693113.069   -71424086.044  
 18  6 25  3 47 50.0000000  0  7G28G30G11G18G07G08G01
  23571848.045    71865351.688  
  21562497.331    -8933963.246  
  20267607.303    -5091299.901  
  20142748.726    -1555006.100  
  20503459.565   -46304449.068  
  21513594.093   -55768731.530  
  20691122.903   -71434538.494  
 18  6 25  3 47 55.0000000  0  7G28G30G11G18G07G08G01
  23569662.110    71853867.767  
  21560930.413    -8942197.967  
  20266825.816    -5095401.480  
  20142348.150    -1557112.505  
  20503647.669   -46303461.406  
  21515331.453   -55759602.831  
  20689137.155   -71444976.038  
 18  6 25  3 48  0.0000000  0  7G28G30G11G18G07G08G01
  23567475.592    71842382.724  
  21559365.629    -8950418.409  
  20266048.467    -5099488.712  
  20141950.566    -1559201.040  
  20503839.052   -46302456.610  
  21517069.230   -55750470.572  
  20687152.968   -71455398.786  
 18  6 25  3 48  5.0000000  0  7G28G30G11G18G07G08G01
  23565291.644    71830896.441  
  21557803.987    -8958624.645  
  20265272.543    -5103561.662  
  20141555.840    -1561271.917  
  20504032.576   -46301434.822  
  21518807.718   -55741334.993  
  20685171.352   -71465806.855  
 18  6 25  3 48 10.0000000  0  7G28G30G11G18G07G08G01
  23563103.518    71819408.909  
  21556244.894    -8966816.603  
  20264499.597    -5107620.372  
  20141165.664    -1563325.098  
  20504231.224   -46300395.992  
  21520546.751   -55732196.053  
  20683194.717   -71476200.207  
 18  6 25  3 48 15.0000000  0  7G28G30G11G18G07G08G01
  23560917.976    71807920.226  
  21554689.958    -8974994.224  
  20263730.235    -5111664.687  
  20140777.643    -1565360.412  
  20504431.596   -46299339.962  
  21522286.220   -55723053.614  
  20681219.663   -71486578.696  
 18  6 25  3 48 20.0000000  0  7G28G30G11G18G07G08G01
  23558732.110    71796430.293  
  21553135.270    -8983157.690  
  20262965.272    -5115694.836  
  20140393.876    -1567378.113  
  20504636.653   -46298267.059  
  21524026.223   -55713907.888  
  20679247.289   -71496942.567  
 18  6 25  3 48 25.0000000  0  7G28G30G11G18G07G08G01
  23556544.665    71784939.146  
  21551585.586    -8991306.848  
  20262200.304    -5119710.679  
  20140014.398    -1569378.127  
  20504843.136   -46297177.136  
  21525768.369   -55704758.887  
  20677277.631   -71507291.683  
 18  6 25  3 48 30.0000000  0  7G28G30G11G18G07G08G01
  23554357.779    71773447.025  
  21550037.891    -8999441.536  
  20261437.754    -5123712.021  
  20139636.479    -1571360.188  
  20505054.613   -46296069.929  
  21527508.068   -55695606.237  
  20675310.533   -71517625.835  
 18  6 25  3 48 35.0000000  0  7G28G30G11G18G07G08G01
  23552172.175    71761953.634  
  21548492.767    -9007562.031  
  20260680.494    -5127699.120  
  20139262.706    -1573324.615  
  20505268.804   -46294945.851  
  21529252.341   -55686450.320  
  20673348.153   -71527945.263  
 18  6 25  3 48 40.0000000  0  7G28G30G11G18G07G08G01
  23549983.430    71750459.034  
  21546950.225    -9015668.184  
  20259923.813    -5131671.979  
  20138892.373    -1575271.355  
  20505485.721   -46293804.721  
  21530995.047   -55677291.063  
  20671387.210   -71538249.942  
 18  6 25  3 48 45.0000000  0  7G28G30G11G18G07G08G01
  23547796.108    71738963.300  
  21545410.251    -9023759.954  
  20259170.129    -5135630.460  
  20138525.323    -1577200.309  
  20505705.348   -46292646.420  
  21532738.746   -55668128.426  
  20669429.551   -71548539.703  
 18  6 25  3 48 50.0000000  0  7G28G30G11G18G07G08G01
  23545608.624    71727466.292  
  21543873.549    -9031837.431  
  20258420.146    -5139574.699  
  20138161.689    -1579111.568  
  20505930.250   -46291471.130  
  21534481.711   -55658962.559  
  20667473.446   -71558814.742  
 18  6 25  3 48 55.0000000  0  7G28G30G11G18G07G08G01
  23543420.040    71715968.353  
  21542338.465    -9039900.397  
  20257672.641    -5143504.342  
  20137800.961    -1581004.794  
  20506157.201   -46290278.630  
  21536227.582   -55649793.143  
  20665520.391   -71569074.743  
